Station Name,Latitude,Longitude,Location
Damen Ave & Charleston St,41.920082,-87.677855,POINT (-87.677855 41.920082)
Laramie Ave & Kinzie St,41.887832,-87.755527,POINT (-87.755527 41.887832)
Warren Park West,42.001785,-87.688829,POINT (-87.688829 42.001785)
Lockwood Ave & Wrightwood Ave,41.927766,-87.758544,POINT (-87.758544 41.927766)
California Ave & Cortez St,41.900363,-87.696704,POINT (-87.696704 41.900363)
LaSalle Dr & Huron St,41.894877,-87.632326,POINT (-87.632326 41.894877)
California Ave & 36th St,41.828098,-87.694684,POINT (-87.694684 41.828098)
Blackstone Ave & 59th St,41.787877,-87.590461,POINT (-87.590461 41.787877)
Dorchester Ave & 49th St,41.805772,-87.592464,POINT (-87.592464 41.805772)
MLK Jr Dr & 83rd St,41.743116,-87.6148,POINT (-87.6148 41.743116)
Archer (Damen) Ave & 37th St,41.826712,-87.683144,POINT (-87.683144 41.826712)
Eckhart Park,41.89637337,-87.66098386,POINT (-87.66098386 41.89637337)
Clinton St & Jackson Blvd,41.8783166118,-87.6409810781,POINT (-87.640981078148 41.878316611831)
Vincennes Ave & 79th St,41.7506,-87.63409,POINT (-87.63409 41.7506)
California & 16th St,41.859228,-87.695562,POINT (-87.695562 41.859228)
Leavitt St & Chicago Ave,41.895501,-87.682017,POINT (-87.682017 41.895501)
Yates Blvd & 75th St,41.758768,-87.56644,POINT (-87.56644 41.758768)
Central Park Ave & 24th St,41.8481,-87.715068,POINT (-87.715068 41.8481)
Racine Ave & 15th St,41.861267,-87.656625,POINT (-87.656625 41.861267)
Indiana Ave & 133rd St,41.6538,-87.61719,POINT (-87.61719 41.6538)
Clark St & Berwyn Ave,41.9780306225,-87.6685649157,POINT (-87.668564915657 41.978030622487)
Scottsdale Park,41.741966,-87.736179,POINT (-87.736179 41.741966)
Desplaines St & Jackson Blvd,41.8781189009,-87.6439476013,POINT (-87.643947601318 41.878118900912)
Menard Ave & Lawrence Ave,41.96788,-87.77274,POINT (-87.77274 41.96788)
Damen Ave & 51st St,41.800908,-87.674684,POINT (-87.674684 41.800908)
Clark St & Montrose Ave,41.961588,-87.666036,POINT (-87.666036 41.961588)
Clark St & Schreiber Ave,41.999245,-87.671249,POINT (-87.671249 41.999245)
Halsted St & 35th St,41.830661,-87.647172,POINT (-87.647172 41.830661)
Cicero Ave & Quincy St,41.877613,-87.745405,POINT (-87.745405 41.877613)
Pulaski Rd & 60th St,41.784186,-87.722564,POINT (-87.722564 41.784186)
South Shore Dr & 71st St,41.7664094567,-87.5656875719,POINT (-87.5656875719 41.7664094567)
Leavitt St & Armitage Ave,41.917805,-87.682437,POINT (-87.682437 41.917805)
Kimbark Ave & 53rd St,41.7994549,-87.5947779,POINT (-87.5947779 41.7994549)
Fairbanks St & Superior St,41.895748,-87.620104,POINT (-87.620104 41.895748)
Glenwood Ave & Morse Ave,42.0079719229,-87.6655023944,POINT (-87.6655023944 42.00797192287)
Sheridan Rd & Irving Park Rd,41.954245,-87.654406,POINT (-87.654406 41.954245)
Indiana Ave & 40th St,41.82168,-87.6216,POINT (-87.6216 41.82168)
Ellis Ave & 58th St,41.788746,-87.601334,POINT (-87.601334 41.788746)
St Louis Ave & Norman Bobbins Pl,41.79439,-87.71132,POINT (-87.71132 41.79439)
Keeler Ave & Carmen Ave,41.974323,-87.7331,POINT (-87.7331 41.974323)
Kilbourn Ave & Roscoe St,41.942722,-87.739557,POINT (-87.739557 41.942722)
Drake Ave & Montrose Ave,41.9611540757,-87.7165690733,POINT (-87.7165690733 41.96115407569)
W Washington Blvd & N Peoria St,41.883043,-87.649931,POINT (-87.649931 41.883043)
Lake Park Ave & 35th St,41.8312742355,-87.6087991946,POINT (-87.6087991946 41.83127423549)
Sheridan Rd & Buena Ave,41.958494,-87.654966,POINT (-87.654966 41.958494)
Sayre Ave & Diversey Ave,41.93098,-87.80106,POINT (-87.80106 41.93098)
Stewart Ave & 123rd St,41.6706,-87.63244,POINT (-87.63244 41.6706)
Sheffield Ave & Webster Ave,41.92154,-87.653818,POINT (-87.653818 41.92154)
Panama Ave & Grace St,41.94766,-87.82925,POINT (-87.82925 41.94766)
Western Ave & Grace St,41.95039,-87.688234,POINT (-87.688234 41.95039)
Vernon Ave & 79th St,41.75094,-87.61379,POINT (-87.61379 41.75094)
Pulaski Rd & Eddy St,41.946264,-87.731023,POINT (-87.731023 41.946264)
Kedzie Ave & Foster Ave,41.975672,-87.709261,POINT (-87.709261 41.975672)
Austin Blvd & Chicago Ave,41.894887,-87.774704,POINT (-87.774704 41.894887)
Broadway & Berwyn Ave,41.978361,-87.659789,POINT (-87.659789 41.978361)
N Shore Channel Trail & Argyle St,41.972177,-87.702749,POINT (-87.702749 41.972177)
Morgan St & 31st St,41.8378,-87.65114,POINT (-87.65114 41.8378)
Keystone Ave & Fullerton Ave,41.92459,-87.72785,POINT (-87.72785 41.92459)
Wallace St & Pershing Rd,41.82339,-87.64118,POINT (-87.64118 41.82339)
Meade Ave & Diversey Ave,41.93086,-87.77845,POINT (-87.77845 41.93086)
Kostner Ave & Wrightwood Ave,41.927957,-87.735952,POINT (-87.735952 41.927957)
Kildare Ave & 55th St,41.79332,-87.73059,POINT (-87.73059 41.79332)
Racine Ave & Garfield Blvd,41.794228,-87.655073,POINT (-87.655073 41.794228)
Campbell Ave & Montrose Ave,41.961524,-87.691177,POINT (-87.691177 41.961524)
Ashland Ave & Wrightwood Ave,41.92883,-87.668507,POINT (-87.668507 41.92883)
Indiana Ave & 133rd St,41.653564,-87.617054,POINT (-87.617054 41.653564)
Eberhart Ave & 131st St,41.6584131511,-87.610710897,POINT (-87.610710896988 41.658413151101)
Dearborn St & Adams St,41.8793563587,-87.6297910363,POINT (-87.6297910363 41.8793563587)
Griffin Museum of Science and Industry,41.7917282095,-87.583945009,POINT (-87.583945009 41.79172820953)
Wabash Ave & Adams St,41.8794723523,-87.6256886059,POINT (-87.6256886059 41.87947235235)
Komensky Ave & 31st St,41.836708,-87.725641,POINT (-87.725641 41.836708)
Kilpatrick Ave & Parker Ave,41.930736,-87.744082,POINT (-87.744082 41.930736)
N Damen Ave & W Chicago Ave,41.895809,-87.678519,POINT (-87.678519 41.895809)
St. Louis & 71st St,41.764354,-87.710121,POINT (-87.710121 41.764354)
Union Ave & Root St,41.819102,-87.643278,POINT (-87.643278 41.819102)
Canal St & Adams St,41.879255,-87.639904,POINT (-87.639904 41.879255)
Michigan Ave & Ida B Wells Dr,41.876203,-87.624464,POINT (-87.624464 41.876203)
Pershing Rd & Sacramento Ave,41.8223772681,-87.69975413,POINT (-87.699754130038 41.822377268101)
Clark St & Chicago Ave,41.89675,-87.63089,POINT (-87.63089 41.89675)
Walsh Park,41.91461,-87.667968,POINT (-87.667968 41.91461)
Pulaski Rd & Lake St,41.885409,-87.726491,POINT (-87.726491 41.885409)
Racine Ave & Randolph St,41.8840812248,-87.6569207293,POINT (-87.656920729303 41.884081224847)
Woodlawn Ave & 55th St,41.795264,-87.596471,POINT (-87.596471 41.795264)
Spaulding Ave & 63rd,41.7791655,-87.7056392,POINT (-87.7056392 41.7791655)
Campbell Ave & Augusta Blvd,41.899578,-87.689497,POINT (-87.689497 41.899578)
Tripp Ave & 31st St,41.836966,-87.730502,POINT (-87.730502 41.836966)
Kedzie Ave & 83rd St,41.742523,-87.702279,POINT (-87.702279 41.742523)
Francisco Ave & Montrose Ave,41.9610471,-87.700901,POINT (-87.700901 41.9610471)
Komensky Ave & 47th St,41.80769,-87.72472,POINT (-87.72472 41.80769)
State St & 54th St,41.796642,-87.625923,POINT (-87.625923 41.796642)
Wood St & 84th St,41.741192,-87.668106,POINT (-87.668106 41.741192)
W 103rd St & S Avers Ave,41.705846,-87.717074,POINT (-87.717074 41.705846)
South Chicago Ave & Elliot Ave,41.747363,-87.580046,POINT (-87.580046 41.747363)
Fullerton & Monitor,41.9237918,-87.7723116,POINT (-87.7723116 41.9237918)
Homan Ave & 65th St,41.775144,-87.708129,POINT (-87.708129 41.775144)
Stony Island Ave & 64th St,41.778881,-87.586647,POINT (-87.586647 41.778881)
Ashland Ave & Pershing Rd,41.823465,-87.665577,POINT (-87.665577 41.823465)
California Ave & Winona St,41.974712,-87.697852,POINT (-87.697852 41.974712)
Elston Ave & Wabansia Ave,41.912919,-87.664169,POINT (-87.664169 41.912919)
Greenview Ave & Diversey Pkwy,41.9325896343,-87.6659363508,POINT (-87.665936350822 41.932589634298)
Western Ave & 24th St,41.84847,-87.685109,POINT (-87.685109 41.84847)
North Ave & New England Ave,41.9092204,-87.7971406,POINT (-87.7971406 41.9092204)
Damen Ave & Wabansia Ave,41.9122813,-87.6773211,POINT (-87.6773211 41.9122813)
Racine Ave & Washington Blvd,41.883073,-87.656952,POINT (-87.656952 41.883073)
Mango Ave & North Ave,41.90958,-87.7691175,POINT (-87.7691175 41.90958)
Racine Ave & 18th St,41.8583996,-87.6564226,POINT (-87.6564226 41.8583996)
Damen Ave & Pierce Ave,41.9088152,-87.6771937,POINT (-87.6771937 41.9088152)
Ashland Ave & Belle Plaine Ave,41.956057,-87.668835,POINT (-87.668835 41.956057)
Whipple/Irving Park,41.954189,-87.704448,POINT (-87.704448 41.954189)
Artesian Ave & Marquette Rd,41.77203,-87.684637,POINT (-87.684637 41.77203)
Rush St & Hubbard St,41.890173,-87.626185,POINT (-87.626185 41.890173)
Dearborn St & Monroe St,41.881319815,-87.6295209193,POINT (-87.6295209193 41.881319815)
Western Ave & Monroe St,41.88142526,-87.6866316818,POINT (-87.6866316818 41.88142526)
Ogden Ave & Congress Pkwy,41.87501,-87.67328,POINT (-87.67328 41.87501)
State St & 76th St,41.756971,-87.624621,POINT (-87.624621 41.756971)
Damen Ave & 87th St,41.736044,-87.672861,POINT (-87.672861 41.736044)
Glenwood Ave & Touhy Ave,42.012701,-87.666058,POINT (-87.666058 42.012701)
Eggleston Ave & 69th St,41.768898,-87.635876,POINT (-87.635876 41.768898)
Springfield Ave & 47th St,41.8080713,-87.7212202,POINT (-87.7212202 41.8080713)
Clinton St & Tilden St,41.875885,-87.640795,POINT (-87.640795 41.875885)
Carpenter St & Huron St,41.894556,-87.653449,POINT (-87.653449 41.894556)
Lincoln Ave & Addison St,41.946176,-87.673308,POINT (-87.673308 41.946176)
Western Ave & 104th St,41.7045871022,-87.6812034845,POINT (-87.681203484535 41.704587102189)
Harding Ave & 31st St,41.83672,-87.72303,POINT (-87.72303 41.83672)
Halsted St & Roscoe St,41.94367,-87.64895,POINT (-87.64895 41.94367)
Monitor Ave & Division St,41.90192,-87.77178,POINT (-87.77178 41.90192)
Kedzie Ave & George St,41.933886,-87.707262,POINT (-87.707262 41.933886)
Sangamon St & Washington Blvd,41.883165,-87.6511,POINT (-87.6511 41.883165)
Damen Ave & Madison St,41.88137,-87.67493,POINT (-87.67493 41.88137)
Narragansett Ave & School St,41.940128,-87.7864806,POINT (-87.7864806 41.940128)
Wentworth Ave & 35th St,41.830777,-87.632504,POINT (-87.632504 41.830777)
Western Ave & Fillmore St,41.868563,-87.686234,POINT (-87.686234 41.868563)
California Ave & North Ave,41.910044,-87.697167,POINT (-87.697167 41.910044)
Clarendon Ave & Gordon Ter,41.9578665242,-87.6495051384,POINT (-87.649505138397 41.957866524152)
Sheridan Rd & Columbia Ave,42.004583,-87.661406,POINT (-87.661406 42.004583)
Evanston Civic Center,42.057044,-87.686554,POINT (-87.686554 42.057044)
Kenneth Ave & Lawrence Ave,41.967943,-87.739983,POINT (-87.739983 41.967943)
Sacramento Blvd & Polk St,41.870959,-87.700259,POINT (-87.700259 41.870959)
Hoyne Ave & 47th St,41.808227,-87.67718,POINT (-87.67718 41.808227)
Central Ave & Roscoe St,41.942275,-87.76695,POINT (-87.76695 41.942275)
Lincoln Ave & Sunnyside Ave,41.963004,-87.684781,POINT (-87.684781 41.963004)
Washtenaw Ave & Polk St,41.8711028,-87.693683,POINT (-87.693683 41.8711028)
University Ave & 57th St,41.791478,-87.599861,POINT (-87.599861 41.791478)
State St & 19th St,41.856594,-87.627542,POINT (-87.627542 41.856594)
21st St & Pulaski Rd,41.8534420759,-87.7246284974,POINT (-87.72462849737 41.853442075882)
Latrobe Ave & Chicago Ave,41.894745,-87.756895,POINT (-87.756895 41.894745)
Hermitage Ave & Polk St,41.871514,-87.669886,POINT (-87.669886 41.871514)
Halsted St & 21st St,41.8537798107,-87.6466029882,POINT (-87.646602988243 41.853779810727)
Clarendon Ave & Junior Ter,41.961004,-87.649603,POINT (-87.649603 41.961004)
Prairie Ave & Garfield Blvd,41.794853,-87.618691,POINT (-87.618691 41.794853)
N Clark St & W Elm St,41.902901,-87.631282,POINT (-87.631282 41.902901)
Kingsbury St & Kinzie St,41.8891768326,-87.6385057718,POINT (-87.6385057718 41.88917683258)
Dodge Ave & Church St,42.048308,-87.698224,POINT (-87.698224 42.048308)
Desplaines St & Kinzie St,41.888716036,-87.6444478533,POINT (-87.6444478533 41.888716036)
Francisco Ave & 85th St,41.738902,-87.695518,POINT (-87.695518 41.738902)
North Boundary Park,42.01303,-87.70891,POINT (-87.70891 42.01303)
Broadway & Barry Ave,41.937582316,-87.644097805,POINT (-87.644097805023 41.937582316006)
Lavergne Ave & Lawrence Ave,41.96775,-87.75259,POINT (-87.75259 41.96775)
Clinton St & Roosevelt Rd,41.8671177825,-87.6410879593,POINT (-87.6410879593 41.8671177825)
Michigan Ave & 8th St,41.872773,-87.623981,POINT (-87.623981 41.872773)
Aberdeen St & Monroe St,41.880419,-87.655519,POINT (-87.655519 41.880419)
Western Ave & Division St,41.902893,-87.687275,POINT (-87.687275 41.902893)
Damen Ave & Leland Ave,41.967081,-87.679076,POINT (-87.679076 41.967081)
Evans Ave & 75th St,41.75849,-87.60641,POINT (-87.60641 41.75849)
Hyacinth Ave & Milwaukee Ave,41.99282,-87.78377,POINT (-87.78377 41.99282)
Clark St & Winnemac Ave,41.9733476405,-87.6678554714,POINT (-87.667855471373 41.973347640473)
Cottage Grove Ave & 78th St,41.753174,-87.605026,POINT (-87.605026 41.753174)
Marine Dr & Ainslie St,41.9716,-87.650154,POINT (-87.650154 41.9716)
Ashland Ave & 50th St,41.803023,-87.664699,POINT (-87.664699 41.803023)
Maplewood Ave & Peterson Ave,41.9902360287,-87.6933696402,POINT (-87.6933696402 41.99023602867)
Blue Island Ave & 18th St,41.857556,-87.661535,POINT (-87.661535 41.857556)
Kedzie Ave & 104th St,41.7037764,-87.7013952,POINT (-87.7013952 41.7037764)
Lawndale Ave & 16th St,41.8591606,-87.7176965,POINT (-87.7176965 41.8591606)
Milwaukee Ave & Highland Ave,41.99636,-87.78674,POINT (-87.78674 41.99636)
Sheffield Ave & Waveland Ave,41.949399,-87.654529,POINT (-87.654529 41.949399)
State St & Van Buren St,41.877181,-87.627844,POINT (-87.627844 41.877181)
Clark St & Jarvis Ave,42.015963,-87.675005,POINT (-87.675005 42.015963)
Ashland Ave & 66th St,41.774074,-87.663815,POINT (-87.663815 41.774074)
Rockwell St & Cermak Rd,41.851644,-87.690621,POINT (-87.690621 41.851644)
California Ave & Altgeld St,41.92669,-87.697668,POINT (-87.697668 41.92669)
Broadway & Thorndale Ave,41.9897425114,-87.6601406209,POINT (-87.6601406209 41.98974251144)
Rockwell St & 63rd St,41.7787905,-87.6885894,POINT (-87.6885894 41.7787905)
Ogden Ave & Race Ave,41.891795,-87.658751,POINT (-87.658751 41.891795)
Oketo Ave & Addison St,41.94496,-87.81189,POINT (-87.81189 41.94496)
Bernard St & Elston Ave,41.949923,-87.713949,POINT (-87.713949 41.949923)
Wolcott (Ravenswood) Ave & Montrose Ave,41.961406,-87.676169,POINT (-87.676169 41.961406)
Southport Ave & Clybourn Ave,41.9215759,-87.6664335,POINT (-87.6664335 41.9215759)
Springfield Ave & North Ave,41.910158,-87.723831,POINT (-87.723831 41.910158)
Plainfield & Irving Park,41.952037,-87.833283,POINT (-87.833283 41.952037)
Kosciuszko Park,41.9305853714,-87.7237773635,POINT (-87.7237773635 41.93058537138)
Stave St & Armitage Ave,41.917741,-87.691392,POINT (-87.691392 41.917741)
Fairfield Ave & Roosevelt Rd,41.866624,-87.694521,POINT (-87.694521 41.866624)
Burley Ave & 85th St,41.74117,-87.54518,POINT (-87.54518 41.74117)
Emerald Ave & 31st St,41.838198,-87.645143,POINT (-87.645143 41.838198)
Warren Park East,42.0045496219,-87.6806661451,POINT (-87.6806661451 42.00454962194)
Kedzie Ave & Harrison St,41.8735996746,-87.7048707493,POINT (-87.7048707493 41.87359967462)
Cicero Ave & Lake St,41.886841,-87.745261,POINT (-87.745261 41.886841)
Karlov Ave & Madison St,41.88085,-87.727907,POINT (-87.727907 41.88085)
Lincoln Park Conservatory,41.9239313114,-87.6358245313,POINT (-87.635824531317 41.923931311366)
Avondale Ave & Irving Park Rd,41.953393,-87.732002,POINT (-87.732002 41.953393)
Big Marsh Park,41.6858770556,-87.5738239288,POINT (-87.573823928833 41.685877055623)
Dayton St & North Ave,41.9105780349,-87.6494219288,POINT (-87.6494219288 41.9105780349)
Racine Ave & Fullerton Ave,41.925566,-87.658416,POINT (-87.658416 41.925566)
Ashland Ave & 13th St,41.865234,-87.666507,POINT (-87.666507 41.865234)
Conservatory Dr & Lake St,41.885502,-87.716866,POINT (-87.716866 41.885502)
Christiana Ave & Lawrence Ave,41.9683544936,-87.7118306675,POINT (-87.7118306675 41.96835449363)
Franklin St & Jackson Blvd,41.8777079559,-87.6353211408,POINT (-87.6353211408 41.8777079559)
California Ave & 29th St,41.840222,-87.694129,POINT (-87.694129 41.840222)
Cicero Ave & Flournoy St,41.872131,-87.746619,POINT (-87.746619 41.872131)
Fort Dearborn Dr & 31st St,41.838556,-87.608218,POINT (-87.608218 41.838556)
N Carpenter St & W Lake St,41.885586,-87.6531893,POINT (-87.6531893 41.885586)
Damen Ave & 81st St,41.746534,-87.673055,POINT (-87.673055 41.746534)
Richmond St & 59th St,41.78649,-87.69733,POINT (-87.69733 41.78649)
Western Ave & Lake St,41.88481,-87.68668,POINT (-87.68668 41.88481)
Leavitt St & Lawrence Ave,41.968885,-87.684001,POINT (-87.684001 41.968885)
Lincoln Ave & Melrose St,41.9406,-87.669435,POINT (-87.669435 41.9406)
Francisco Ave & Bloomingdale Ave,41.913959,-87.699368,POINT (-87.699368 41.913959)
Federal St & Polk St,41.8720776329,-87.6295437729,POINT (-87.6295437729 41.87207763285)
Cottage Grove Ave & 43rd St,41.816499,-87.606582,POINT (-87.606582 41.816499)
Kimball Ave & Belmont Ave,41.9393939534,-87.7120676637,POINT (-87.71206766367 41.939393953443)
Damen Ave & Clybourn Ave,41.931931,-87.677856,POINT (-87.677856 41.931931)
MLK Jr Dr & Pershing Rd,41.8246,-87.61678,POINT (-87.61678 41.8246)
Kedzie Ave & 110th St,41.6923947459,-87.7009606361,POINT (-87.700960636139 41.692394745876)
Clinton St & 18th St,41.85795,-87.640826,POINT (-87.640826 41.85795)
Lake Park Ave & 47th St,41.809443,-87.591875,POINT (-87.591875 41.809443)
Wrigley Events Parking Area,41.9472,-87.65395,POINT (-87.65395 41.9472)
Western Ave & 62nd St,41.780985,-87.6834204,POINT (-87.6834204 41.780985)
Knox Ave & Montrose Ave,41.960631,-87.745359,POINT (-87.745359 41.960631)
Damen Ave & 33rd St,41.834108,-87.67559,POINT (-87.67559 41.834108)
California Ave & Division St,41.903029,-87.697474,POINT (-87.697474 41.903029)
Daley Center Plaza,41.884241,-87.629634,POINT (-87.629634 41.884241)
N Southport Ave & W Newport Ave,41.944019,-87.663975,POINT (-87.663975 41.944019)
Franklin St & Adams St (Temp),41.8794340914,-87.6355040073,POINT (-87.635504007339 41.8794340914)
Lincoln Ave & Waveland Ave,41.948797,-87.675278,POINT (-87.675278 41.948797)
Western Ave & Lake St,41.884606,-87.685853,POINT (-87.685853 41.884606)
Ada St & Washington Blvd,41.88283,-87.661206,POINT (-87.661206 41.88283)
Portage Park,41.95607,-87.76472,POINT (-87.76472 41.95607)
Elston Ave & Cortland St,41.9164334291,-87.6667463779,POINT (-87.666746377945 41.916433429127)
Canal St & Taylor St,41.870257,-87.639474,POINT (-87.639474 41.870257)
Kostner Ave & 63rd St,41.77875,-87.73246,POINT (-87.73246 41.77875)
Phillips Ave & 83rd St,41.744531,-87.56506,POINT (-87.56506 41.744531)
Paulina St & Montrose Ave,41.961507,-87.671387,POINT (-87.671387 41.961507)
Dorchester Ave & 63rd St,41.7804056457,-87.5914159893,POINT (-87.5914159893 41.7804056457)
Central Ave & Madison St,41.880121,-87.763238,POINT (-87.763238 41.880121)
Calumet Ave & 18th St,41.8576175529,-87.6194107533,POINT (-87.61941075325 41.857617552938)
Vernon Ave & 75th St,41.758361,-87.614138,POINT (-87.614138 41.758361)
Halsted St & 119th St,41.67764,-87.64174,POINT (-87.64174 41.67764)
Talman Ave & Addison St,41.9466358306,-87.694614758,POINT (-87.694614758 41.9466358306)
Stewart Ave & 83rd St,41.743717,-87.634088,POINT (-87.634088 41.743717)
Cannon Dr & Fullerton Ave,41.9267559875,-87.6344287848,POINT (-87.6344287848 41.9267559875)
Ashland Ave & Blackhawk St,41.907066,-87.667252,POINT (-87.667252 41.907066)
Lakeview Ave & Fullerton Pkwy,41.925858,-87.638973,POINT (-87.638973 41.925858)
Central St Metra,42.063598,-87.69873,POINT (-87.69873 42.063598)
Keeler Ave & Roosevelt Rd,41.866402,-87.7300171,POINT (-87.7300171 41.866402)
Western Ave & Berteau Ave,41.95774,-87.688273,POINT (-87.688273 41.95774)
Sheffield Ave & Willow St,41.913688,-87.652855,POINT (-87.652855 41.913688)
LaSalle St & Adams St,41.8793443735,-87.6319852213,POINT (-87.6319852213 41.87934437346)
Stewart Ave & 63rd St,41.779835,-87.634774,POINT (-87.634774 41.779835)
Halsted St & 59th St,41.787539,-87.644874,POINT (-87.644874 41.787539)
Campbell Ave & 51st St,41.80094,-87.68676,POINT (-87.68676 41.80094)
Marmora Ave & Irving Park Rd,41.9531072,-87.7747326,POINT (-87.7747326 41.9531072)
Michigan Ave & 18th St,41.857926,-87.624336,POINT (-87.624336 41.857926)
Troy St & Grace St,41.950244,-87.706489,POINT (-87.706489 41.950244)
Weekend Night Parking Area C,41.94479,-87.64948,POINT (-87.64948 41.94479)
Weekend Night Parking Area D,41.94294,-87.64943,POINT (-87.64943 41.94294)
Broadway & Ridge Ave,41.9840446107,-87.6602738295,POINT (-87.6602738295 41.9840446107)
S Aberdeen St & W 106th St,41.701217,-87.649345,POINT (-87.649345 41.701217)
Campbell Ave & Irving Park Rd,41.953634,-87.690782,POINT (-87.690782 41.953634)
Weekend Night Parking Area B,41.94491,-87.65477,POINT (-87.65477 41.94491)
California Ave & Touhy Ave,42.0120368,-87.7004371,POINT (-87.7004371 42.0120368)
Benson Ave & Church St,42.048214,-87.683485,POINT (-87.683485 42.048214)
Milwaukee Ave & Grand Ave,41.891578,-87.648384,POINT (-87.648384 41.891578)
Western Ave & 81st St,41.746426,-87.683123,POINT (-87.683123 41.746426)
Avenue O & 134th St,41.6519026853,-87.5395553938,POINT (-87.539555393765 41.651902685321)
Clarendon Ave & Leland Ave,41.967968,-87.650001,POINT (-87.650001 41.967968)
Lincoln Ave & Roscoe St*,41.943350247,-87.6706677675,POINT (-87.670667767525 41.943350247017)
Desplaines St & Randolph St,41.883703,-87.644238,POINT (-87.644238 41.883703)
Central Park Ave & Douglas Blvd,41.86235,-87.71587,POINT (-87.71587 41.86235)
Kilpatrick Ave & Grand Ave,41.912732,-87.743636,POINT (-87.743636 41.912732)
Woodlawn & 103rd,41.707338,-87.59399,POINT (-87.59399 41.707338)
Marshfield Ave & 44th St,41.813996,-87.666589,POINT (-87.666589 41.813996)
McClurg Ct & Erie St,41.894503,-87.617854,POINT (-87.617854 41.894503)
Kildare Ave & Chicago Ave,41.8954357,-87.7334818,POINT (-87.7334818 41.8954357)
Greenwood Ave & 91st St,41.7282642682,-87.5972986221,POINT (-87.597298622131 41.728264268163)
Kilbourn Ave & Milwaukee Ave,41.9470708942,-87.740008235,POINT (-87.740008234978 41.947070894185)
Grace St & Cicero Ave,41.94973,-87.74695,POINT (-87.74695 41.94973)
Komensky Ave & 55th St,41.793279,-87.724189,POINT (-87.724189 41.793279)
Honore St & Division St,41.903119,-87.673935,POINT (-87.673935 41.903119)
Ping Tom Park (East),41.8579886,-87.6319447,POINT (-87.6319447 41.8579886)
Central St & Girard Ave,42.064313,-87.686152,POINT (-87.686152 42.064313)
Morgan Ave & 14th Pl,41.862378,-87.651062,POINT (-87.651062 41.862378)
Franklin St & Chicago Ave,41.89679,-87.63564,POINT (-87.63564 41.89679)
Mason Ave & Belmont Ave,41.9383682,-87.7725029,POINT (-87.7725029 41.9383682)
Lincoln Ave & Diversey Pkwy,41.932225,-87.658617,POINT (-87.658617 41.932225)
Racine Ave & 65th St,41.775393,-87.654308,POINT (-87.654308 41.775393)
Elston Ave & Henderson St,41.941499,-87.701051,POINT (-87.701051 41.941499)
Wood St & Webster Ave,41.9210567299,-87.6727974415,POINT (-87.672797441483 41.921056729928)
Greenwood Ave & 47th St,41.809835,-87.599383,POINT (-87.599383 41.809835)
Long Ave & Belden Ave,41.9227049,-87.760954,POINT (-87.760954 41.9227049)
Wells St & 19th St,41.856802,-87.633879,POINT (-87.633879 41.856802)
Princeton Ave & 95th St,41.72175,-87.63075,POINT (-87.63075 41.72175)
Ashland Ave & Chicago Ave,41.8959543573,-87.6677280664,POINT (-87.667728066444 41.895954357343)
Pulaski Rd & 68th St,41.76949,-87.72292,POINT (-87.72292 41.76949)
Washtenaw Ave & Lawrence Ave,41.9687297,-87.6962603,POINT (-87.6962603 41.9687297)
Menard Ave & North Ave,41.9097167,-87.7702037,POINT (-87.7702037 41.9097167)
Francisco Ave & Hollywood Ave,41.984746,-87.701593,POINT (-87.701593 41.984746)
Mango Ave & Diversey Ave,41.9309625,-87.7698856,POINT (-87.7698856 41.9309625)
Hampden Ct & Diversey Ave,41.9325593,-87.6423847,POINT (-87.6423847 41.9325593)
Spaulding Ave & Armitage Ave,41.9171080348,-87.7102209628,POINT (-87.710220962763 41.917108034789)
Central Ave & Harrison St,41.872993,-87.764499,POINT (-87.764499 41.872993)
Pulaski Rd & 54th St,41.79499,-87.72361,POINT (-87.72361 41.79499)
Drexel Ave & 60th St,41.785861,-87.604553,POINT (-87.604553 41.785861)
Aberdeen St & Randolph St,41.884114,-87.654264,POINT (-87.654264 41.884114)
Fairfield Ave & 44th St,41.813617,-87.6932272,POINT (-87.6932272 41.813617)
Granville Ave & Pulaski Rd,41.9924402,-87.7289072,POINT (-87.7289072 41.9924402)
Canal St & Harrison St,41.874255,-87.639573,POINT (-87.639573 41.874255)
Bennett Ave & 79th St,41.751785,-87.578496,POINT (-87.578496 41.751785)
California Ave & Milwaukee Ave,41.922695,-87.697153,POINT (-87.697153 41.922695)
Central Park Ave & Washington Blvd,41.8827476,-87.7153994,POINT (-87.7153994 41.8827476)
Larrabee St & Division St,41.90348607,-87.6433534936,POINT (-87.6433534936 41.90348607004)
Major Ave & Bloomingdale Ave,41.9125923,-87.7686995,POINT (-87.7686995 41.9125923)
Sheridan Rd & Lawrence Ave,41.969517,-87.654691,POINT (-87.654691 41.969517)
Leclaire Ave & Belmont Ave,41.939041,-87.754197,POINT (-87.754197 41.939041)
Central Ave & Chicago Ave,41.894958,-87.764902,POINT (-87.764902 41.894958)
Albany Ave & Bloomingdale Ave,41.9140267127,-87.705126462,POINT (-87.705126462 41.91402671273)
Wabash Ave & 49th St,41.80581,-87.6245,POINT (-87.6245 41.80581)
Harding Ave & Chicago Ave,41.895313,-87.724738,POINT (-87.724738 41.895313)
Wabash Ave & 9th St,41.870769,-87.625734,POINT (-87.625734 41.870769)
State St & Harrison St,41.874053,-87.627716,POINT (-87.627716 41.874053)
Columbus Ave & 83rd Pl,41.741346,-87.713696,POINT (-87.713696 41.741346)
Western Ave & Leland Ave,41.9657412,-87.6892286,POINT (-87.6892286 41.9657412)
Wells St & Concord Ln,41.912133,-87.634656,POINT (-87.634656 41.912133)
Wilton Ave & Belmont Ave,41.9402319181,-87.6529437304,POINT (-87.652943730354 41.940231918109)
South Shore Dr & 67th St,41.773643,-87.567514,POINT (-87.567514 41.773643)
Chicago Ave & Sheridan Rd,42.050491,-87.677821,POINT (-87.677821 42.050491)
Marmora Ave & Belmont Ave,41.9382897,-87.7737692,POINT (-87.7737692 41.9382897)
Loomis St & 95th St,41.72148,-87.65774,POINT (-87.65774 41.72148)
Shields Ave & 28th Pl,41.842733,-87.635491,POINT (-87.635491 41.842733)
Tripp Ave & 65th St,41.77491,-87.72883,POINT (-87.72883 41.77491)
Throop St & 99th St,41.71414,-87.6547,POINT (-87.6547 41.71414)
DuSable Lake Shore Dr & Diversey Pkwy,41.932588,-87.636427,POINT (-87.636427 41.932588)
Western Ave & Howard St,42.018901,-87.690048,POINT (-87.690048 42.018901)
Milwaukee Ave & Fullerton Ave,41.924691,-87.70055,POINT (-87.70055 41.924691)
Cicero Ave & Wrightwood Ave,41.9279057,-87.7467295,POINT (-87.7467295 41.9279057)
Maplewood Ave & 59th St,41.7863375,-87.6874351,POINT (-87.6874351 41.7863375)
Paulina St & 18th St,41.857901,-87.668745,POINT (-87.668745 41.857901)
Clark St & Grace St,41.95078,-87.659172,POINT (-87.659172 41.95078)
Bernard St & Peterson Ave,41.9904393,-87.715236,POINT (-87.715236 41.9904393)
Prospect Sq & 91st St,41.7282338,-87.6675239,POINT (-87.6675239 41.7282338)
Chicago Ave & Washington St,42.032562,-87.679101,POINT (-87.679101 42.032562)
MLK Jr Dr & 29th St,41.842052,-87.617,POINT (-87.617 41.842052)
Sedgwick St & Huron St,41.894666,-87.638437,POINT (-87.638437 41.894666)
Troy Ave & 27th St,41.84265,-87.70401,POINT (-87.70401 41.84265)
St Louis Ave & 59th St,41.78589,-87.71057,POINT (-87.71057 41.78589)
Ritchie Ct & Banks St,41.906866,-87.626217,POINT (-87.626217 41.906866)
2112 W Peterson Ave,41.991178,-87.683593,POINT (-87.683593 41.991178)
Ashland Ave & Grand Ave,41.891072,-87.666611,POINT (-87.666611 41.891072)
Troy St & Jackson Blvd,41.877505,-87.70485,POINT (-87.70485 41.877505)
Lincoln Ave & Byron St,41.952372,-87.677296,POINT (-87.677296 41.952372)
Kostner Ave & Adams St,41.877917,-87.735737,POINT (-87.735737 41.877917)
Michigan Ave & 71st St,41.765286,-87.621748,POINT (-87.621748 41.765286)
Commercial Ave & 90th St,41.73198,-87.55107,POINT (-87.55107 41.73198)
Seeley Ave & Garfield Blvd,41.794087,-87.675478,POINT (-87.675478 41.794087)
Emerald Ave & 28th St,41.84358,-87.645368,POINT (-87.645368 41.84358)
Mason Ave & Grand Ave,41.9204347,-87.7743901,POINT (-87.7743901 41.9204347)
Cicero Ave & Roscoe Ave,41.942427,-87.747315,POINT (-87.747315 41.942427)
Wells St & Randolph St,41.884295,-87.633963,POINT (-87.633963 41.884295)
Wabash Ave & Cermak Rd,41.852619,-87.626488,POINT (-87.626488 41.852619)
Albany Ave & 16th St,41.85936,-87.70302,POINT (-87.70302 41.85936)
Lawler Ave & North Ave,41.9091754,-87.7522545,POINT (-87.7522545 41.9091754)
Winchester (Ravenswood) Ave & Balmoral Ave,41.979762,-87.67753,POINT (-87.67753 41.979762)
Clark St & Schiller St,41.907993,-87.631501,POINT (-87.631501 41.907993)
Artesian Ave & 71st St,41.764345,-87.684417,POINT (-87.684417 41.764345)
Sheridan Rd & Argyle St,41.9732868203,-87.6547595859,POINT (-87.654759585857 41.97328682026)
Western Ave & 43rd St,41.81574,-87.68489,POINT (-87.68489 41.81574)
Central Park & Augusta Blvd,41.8989108,-87.7164901,POINT (-87.7164901 41.8989108)
Hastings LWS,41.8635164,-87.6797485,POINT (-87.6797485 41.8635164)
Kildare & Cermak,41.851414,-87.73215,POINT (-87.73215 41.851414)
Orleans St & Chestnut St (NEXT Apts),41.898203,-87.637536,POINT (-87.637536 41.898203)
Wabash Ave & 59th St,41.78715,-87.62395,POINT (-87.62395 41.78715)
Washtenaw Ave & Peterson Ave,41.99066,-87.697075,POINT (-87.697075 41.99066)
Wabash Ave & Roosevelt Rd,41.867227,-87.625961,POINT (-87.625961 41.867227)
La Villita Park,41.83925,-87.70202,POINT (-87.70202 41.83925)
Damen Ave & Wellington Ave,41.93588,-87.67842,POINT (-87.67842 41.93588)
Mozart St & 79th St,41.749702,-87.693917,POINT (-87.693917 41.749702)
Wells St & Evergreen Ave,41.906724,-87.63483,POINT (-87.63483 41.906724)
Lavergne Ave & 46th St,41.80934,-87.7478312,POINT (-87.7478312 41.80934)
Loomis St & Jackson Blvd,41.877945,-87.662007,POINT (-87.662007 41.877945)
Manor Ave & Leland Ave,41.965875,-87.700825,POINT (-87.700825 41.965875)
Indiana Ave & 31st St,41.838842,-87.621857,POINT (-87.621857 41.838842)
Kenneth Ave & 50th St,41.8023156,-87.7344142,POINT (-87.7344142 41.8023156)
Wood St & Milwaukee Ave,41.907655,-87.672552,POINT (-87.672552 41.907655)
MLK Jr Dr & 47th St,41.809851,-87.616279,POINT (-87.616279 41.809851)
Harper Ave & 59th St,41.7879428129,-87.5883151702,POINT (-87.5883151702 41.78794281287)
Kedzie Ave & 60th St,41.78458,-87.70319,POINT (-87.70319 41.78458)
Leavitt St/North Ave,41.910077,-87.682306,POINT (-87.682306 41.910077)
Albany Ave & Belmont Ave,41.939638,-87.705263,POINT (-87.705263 41.939638)
State St & Chicago Ave,41.8966172004,-87.6285785437,POINT (-87.628578543663 41.896617200408)
California Ave & 41st St,41.81867,-87.69441,POINT (-87.69441 41.81867)
Carpenter St & 63rd St,41.77987,-87.650919,POINT (-87.650919 41.77987)
Shore Dr & 55th St,41.795212,-87.580715,POINT (-87.580715 41.795212)
Roscoe & Harlem,41.9416062,-87.8072964,POINT (-87.8072964 41.9416062)
Burnham Greenway & 112th St,41.6917738512,-87.5304311514,POINT (-87.53043115139 41.691773851168)
S Michigan Ave & E 118th St,41.679804,-87.620843,POINT (-87.620843 41.679804)
Western Ave & Granville Ave,41.994161369,-87.689438282,POINT (-87.689438282 41.99416136902)
Virginia Ave & Catalpa Ave,41.9812456,-87.7048924,POINT (-87.7048924 41.9812456)
Ridge Blvd & Howard St,42.019276,-87.68452,POINT (-87.68452 42.019276)
Mozart St & 55th St,41.79375,-87.69472,POINT (-87.69472 41.79375)
Lamon Ave & Belmont Ave,41.9390108,-87.7492834,POINT (-87.7492834 41.9390108)
Karlov Ave & Lawrence Ave,41.967947,-87.730409,POINT (-87.730409 41.967947)
Leavitt St & North Ave,41.910533,-87.682308,POINT (-87.682308 41.910533)
Kedzie Ave & 66th Pl,41.772584,-87.703007,POINT (-87.703007 41.772584)
Narragansett Ave & Montrose Ave,41.959978,-87.786928,POINT (-87.786928 41.959978)
Damen Ave/Coulter St,41.8492,-87.67564,POINT (-87.67564 41.8492)
Kedzie Ave & 73rd St,41.760703,-87.702292,POINT (-87.702292 41.760703)
Burling St & Diversey Pkwy,41.93314,-87.64776,POINT (-87.64776 41.93314)
State St & 29th St,41.841707,-87.626938,POINT (-87.626938 41.841707)
S Wentworth Ave & W 111th St,41.6926176,-87.6280518,POINT (-87.6280518 41.6926176)
Malcolm X College,41.877618,-87.673895,POINT (-87.673895 41.877618)
Wells St & Elm St,41.903222,-87.634324,POINT (-87.634324 41.903222)
Sacramento Blvd & Fulton Ave,41.886528,-87.70167,POINT (-87.70167 41.886528)
Weekend Night Parking Area A,41.94629,-87.65568,POINT (-87.65568 41.94629)
Cottage Grove Ave & 83rd St,41.743441,-87.604836,POINT (-87.604836 41.743441)
Greenview Ave & Jarvis Ave,42.015962,-87.66857,POINT (-87.66857 42.015962)
Paulina Ave & North Ave,41.9098546522,-87.66993016,POINT (-87.669930160046 41.909854652167)
Clifton Ave & Armitage Ave,41.918216,-87.656936,POINT (-87.656936 41.918216)
Western Ave & Gunnison St,41.969659,-87.68955,POINT (-87.68955 41.969659)
Stony Island Ave & 71st St,41.7664929373,-87.5864608775,POINT (-87.5864608775 41.7664929373)
N Green St & W Lake St,41.885579,-87.648484,POINT (-87.648484 41.885579)
Archer Ave & Homan Ave,41.81153,-87.70885,POINT (-87.70885 41.81153)
Midway Orange Line,41.78692,-87.73892,POINT (-87.73892 41.78692)
Artesian Ave & Hubbard St,41.8895,-87.688257,POINT (-87.688257 41.8895)
Clark St & Ida B Wells Dr,41.8759326655,-87.6305845355,POINT (-87.6305845355 41.8759326655)
Wolcott Ave & Polk St,41.871262,-87.673688,POINT (-87.673688 41.871262)
Ashland Ave & Archer Ave,41.839208684,-87.6656098589,POINT (-87.6656098589 41.83920868403)
Rhodes Ave & 71st St,41.766,-87.611726,POINT (-87.611726 41.766)
Sacramento Ave & Pratt Blvd,42.00404,-87.70473,POINT (-87.70473 42.00404)
Laflin St & 115th St,41.68499,-87.65991,POINT (-87.65991 41.68499)
Sacramento Blvd & Addison St,41.94609,-87.702988,POINT (-87.702988 41.94609)
Fairbanks Ct & Grand Ave,41.8918473721,-87.6205801964,POINT (-87.620580196381 41.89184737211)
Long Ave & Belmont Ave,41.93833,-87.76166,POINT (-87.76166 41.93833)
Lawndale Ave & 30th St,41.8389124,-87.7168955,POINT (-87.7168955 41.8389124)
Halsted St & Fulton St,41.886871,-87.648089,POINT (-87.648089 41.886871)
Claremont Ave & Hirsch St,41.907781,-87.685854,POINT (-87.685854 41.907781)
State St & 45th St,41.81313,-87.62585,POINT (-87.62585 41.81313)
LaSalle St & Washington St,41.882664,-87.63253,POINT (-87.63253 41.882664)
Paulina Ave & 87th St,41.735629,-87.66552,POINT (-87.66552 41.735629)
Clark St & Bryn Mawr Ave,41.983593,-87.669154,POINT (-87.669154 41.983593)
Kostner Ave & Lake St,41.885928,-87.73541,POINT (-87.73541 41.885928)
Central Ave & Altgeld St,41.9258119,-87.7663685,POINT (-87.7663685 41.9258119)
Columbus Ave & 79th St,41.749119,-87.704263,POINT (-87.704263 41.749119)
Kedzie Ave & 45th St,41.8113904,-87.7040052,POINT (-87.7040052 41.8113904)
Edgebrook Metra,41.99751,-87.76539,POINT (-87.76539 41.99751)
Wood St & Chicago Ave,41.895634,-87.672069,POINT (-87.672069 41.895634)
Albany Ave & Montrose Ave,41.961041,-87.705866,POINT (-87.705866 41.961041)
Avenue O & 118th St,41.6810014591,-87.5379312227,POINT (-87.537931222687 41.68100145911)
Logan Blvd & Elston Ave,41.929465,-87.684158,POINT (-87.684158 41.929465)
Halsted St & 104th St,41.7051397889,-87.6424241066,POINT (-87.642424106598 41.705139788932)
Homan Ave & Fillmore St,41.868114,-87.7109257,POINT (-87.7109257 41.868114)
Central Park Ave & Bloomingdale Ave,41.914166,-87.716755,POINT (-87.716755 41.914166)
Elston Ave & George St,41.934003,-87.690823,POINT (-87.690823 41.934003)
Phillips Ave & 79th St,41.75182,-87.565211,POINT (-87.565211 41.75182)
State St & Kinzie St,41.8893754666,-87.6270765066,POINT (-87.627076506615 41.889375466632)
Racine Ave & 13th St,41.865054,-87.656959,POINT (-87.656959 41.865054)
Ada St & 113th Place,41.68759,-87.65541,POINT (-87.65541 41.68759)
Oak Park & Wellington,41.934586,-87.7959613,POINT (-87.7959613 41.934586)
Jeffery Blvd & 67th St,41.7735175513,-87.5771428255,POINT (-87.5771428255 41.77351755125)
Vincennes Ave & 75th St,41.75797,-87.63121,POINT (-87.63121 41.75797)
Shields Ave & 31st St,41.838464,-87.635406,POINT (-87.635406 41.838464)
Lake Park Ave & 53rd St,41.7994942937,-87.5864498959,POINT (-87.5864498959 41.79949429373)
Whipple St & Roosevelt Rd,41.866554,-87.701329,POINT (-87.701329 41.866554)
Racine Ave & 61st St,41.783189,-87.654372,POINT (-87.654372 41.783189)
Greenwood Ave & 97th St,41.7187031548,-87.5970357656,POINT (-87.597035765648 41.718703154757)
Ashland Ave & 63rd St,41.779374,-87.664843,POINT (-87.664843 41.779374)
Ashland Ave & Garfield Blvd,41.792822,-87.664429,POINT (-87.664429 41.792822)
W Armitage Ave & N Sheffield Ave,41.917805,-87.653449,POINT (-87.653449 41.917805)
Stockton Dr & Wrightwood Ave,41.93132,-87.638742,POINT (-87.638742 41.93132)
Hamlin Ave & 62nd Pl,41.779953,-87.7178221,POINT (-87.7178221 41.779953)
Vincennes Ave & 95th St,41.72126,-87.65005,POINT (-87.65005 41.72126)
Aberdeen St & 103rd St,41.70704,-87.65022,POINT (-87.65022 41.70704)
California Ave & 21st St,41.8537957935,-87.6958228648,POINT (-87.695822864771 41.853795793473)
Kostner Ave & Belmont Ave,41.939191,-87.737112,POINT (-87.737112 41.939191)
Greenwood Ave & 79th St,41.75129,-87.5976,POINT (-87.5976 41.75129)
Commercial Ave & 100th St,41.7133173955,-87.5510975718,POINT (-87.55109757185 41.713317395477)
Dearborn Pkwy & Delaware Pl,41.898969,-87.629912,POINT (-87.629912 41.898969)
Laramie Ave & Madison St,41.880207,-87.755337,POINT (-87.755337 41.880207)
Ashland Ave & Wellington Ave,41.936083,-87.669807,POINT (-87.669807 41.936083)
Hamlin Ave & Grand Ave,41.904035,-87.721563,POINT (-87.721563 41.904035)
Drake Ave & Addison St,41.947326,-87.717582,POINT (-87.717582 41.947326)
Pulaski Rd & 84th St,41.740407,-87.721907,POINT (-87.721907 41.740407)
Stony Island Ave & South Chicago Ave,41.751173,-87.585337,POINT (-87.585337 41.751173)
Lincoln Ave & Balmoral Ave,41.979461,-87.693013,POINT (-87.693013 41.979461)
Mayfield Ave & Roosevelt Rd,41.86569,-87.77176,POINT (-87.77176 41.86569)
California Ave & Montrose Ave,41.961068,-87.695439,POINT (-87.695439 41.961068)
Kedzie Ave & Milwaukee Ave,41.928999,-87.70803,POINT (-87.70803 41.928999)
Halsted St & Wrightwood Ave,41.929143,-87.649077,POINT (-87.649077 41.929143)
Clark St & 9th St (AMLI),41.870816,-87.631246,POINT (-87.631246 41.870816)
Ellis Ave & 55th St,41.7943006205,-87.6014497734,POINT (-87.6014497734 41.79430062054)
Leavitt St & Division St,41.902997,-87.683825,POINT (-87.683825 41.902997)
Indiana Ave & Roosevelt Rd,41.867888,-87.623041,POINT (-87.623041 41.867888)
Elizabeth St & 92nd St,41.7267989637,-87.6542901993,POINT (-87.65429019928 41.726798963701)
Rockwell St & Fletcher St,41.938689,-87.692972,POINT (-87.692972 41.938689)
Richmond St & Diversey Ave,41.9319019689,-87.7011951301,POINT (-87.7011951301 41.93190196886)
Sacramento Blvd & Franklin Blvd,41.8904687924,-87.7026075125,POINT (-87.702607512474 41.890468792439)
Ravenswood Ave & Irving Park Rd,41.95469,-87.67393,POINT (-87.67393 41.95469)
Narragansett Ave & North Ave,41.9095,-87.78491,POINT (-87.78491 41.9095)
Clark St & Lunt Ave,42.0090111806,-87.6741117239,POINT (-87.6741117239 42.009011180581)
Southport Ave & Roscoe St,41.943739,-87.66402,POINT (-87.66402 41.943739)
California Ave & Marquette Rd,41.771611,-87.693331,POINT (-87.693331 41.771611)
Springfield Ave & 71st St,41.764484,-87.720028,POINT (-87.720028 41.764484)
Avenue L & 114th St,41.6881169,-87.5365497,POINT (-87.5365497 41.6881169)
May St & 69th St,41.768938,-87.652934,POINT (-87.652934 41.768938)
Sheridan Rd & Noyes St (NU),42.058239,-87.677432,POINT (-87.677432 42.058239)
Eberhart Ave & 61st St,41.7840710728,-87.6144835353,POINT (-87.61448353529 41.784071072761)
Mason Ave & Montrose Ave,41.96056,-87.77588,POINT (-87.77588 41.96056)
Parkside Ave & Armitage Ave,41.916907,-87.767173,POINT (-87.767173 41.916907)
Archer Ave & 43rd St,41.8154913,-87.7024412,POINT (-87.7024412 41.8154913)
Kedzie Ave & Bryn Mawr Ave,41.9822297591,-87.7088865638,POINT (-87.708886563778 41.982229759115)
Francisco Ave & Chicago Ave,41.895745,-87.698653,POINT (-87.698653 41.895745)
Sacramento Ave & 25th St,41.846506,-87.700139,POINT (-87.700139 41.846506)
Ravenswood Ave & Berteau Ave,41.957921,-87.673567,POINT (-87.673567 41.957921)
DuSable Museum,41.7915680106,-87.6078521774,POINT (-87.6078521774 41.79156801058)
Orleans St & Merchandise Mart Plaza,41.888243,-87.63639,POINT (-87.63639 41.888243)
Central Park Ave & Ohio St,41.8918718,-87.7163879,POINT (-87.7163879 41.8918718)
Ellis Ave & 83rd St,41.744123,-87.599034,POINT (-87.599034 41.744123)
Lincoln Ave & Peterson Ave,41.990267,-87.70857,POINT (-87.70857 41.990267)
Stony Island Ave & 63rd St,41.780506,-87.586853,POINT (-87.586853 41.780506)
Kostner Ave & Devon Ave,41.997032,-87.73837,POINT (-87.73837 41.997032)
Menard Ave & Milwaukee Ave,41.98139,-87.77331,POINT (-87.77331 41.98139)
Wentworth Ave & 107th St,41.69989,-87.62785,POINT (-87.62785 41.69989)
Cicero Ave & Wellington Ave,41.93515,-87.74636,POINT (-87.74636 41.93515)
Clark St & Drummond Pl,41.931248,-87.644336,POINT (-87.644336 41.931248)
Lavergne Ave & 44th St,41.81311,-87.74869,POINT (-87.74869 41.81311)
Wilton Ave & Diversey Pkwy,41.932418,-87.652705,POINT (-87.652705 41.932418)
Austin Blvd & Madison St,41.880281,-87.774453,POINT (-87.774453 41.880281)
Indiana Ave & 26th St,41.845687,-87.622481,POINT (-87.622481 41.845687)
Western Ave & 79th St,41.750843,-87.682701,POINT (-87.682701 41.750843)
Vincennes Ave & 107th St,41.69922,-87.65869,POINT (-87.65869 41.69922)
Western Ave & Lunt Ave,42.0085943972,-87.6904922389,POINT (-87.6904922389 42.0085943972)
State St & 79th St,41.750794,-87.624424,POINT (-87.624424 41.750794)
Throop St & Taylor St,41.868968,-87.659141,POINT (-87.659141 41.868968)
Southport Ave & Clark St,41.957081,-87.664199,POINT (-87.664199 41.957081)
Damen Ave & Division St,41.903266,-87.678435,POINT (-87.678435 41.903266)
Kildare Ave & Montrose Ave,41.96108,-87.73569,POINT (-87.73569 41.96108)
Mies van der Rohe Way & Chicago Ave,41.8969446264,-87.6217576861,POINT (-87.621757686138 41.896944626371)
Paulina St & Howard St,42.019159,-87.673573,POINT (-87.673573 42.019159)
Damen Ave & Melrose Ave,41.9406,-87.6785,POINT (-87.6785 41.9406)
Streeter Dr & Grand Ave,41.892278,-87.612043,POINT (-87.612043 41.892278)
Lavergne Ave & Division St,41.9021077,-87.7508698,POINT (-87.7508698 41.9021077)
Hoyne Ave & Balmoral Ave,41.979851,-87.681932,POINT (-87.681932 41.979851)
Tripp Ave & 15th St,41.86077,-87.73136,POINT (-87.73136 41.86077)
Normal Ave & Archer Ave,41.849527,-87.640591,POINT (-87.640591 41.849527)
MLK Jr Dr & 56th St,41.7934294566,-87.6158532619,POINT (-87.6158532619 41.79342945658)
Avers Ave & Belmont Ave,41.939408,-87.723574,POINT (-87.723574 41.939408)
Valli Produce - Evanston Plaza,42.039742,-87.699413,POINT (-87.699413 42.039742)
Morgan St & 18th St,41.858086,-87.651073,POINT (-87.651073 41.858086)
Central Ave & Parker Ave,41.9301785,-87.7661217,POINT (-87.7661217 41.9301785)
N Paulina St & Lincoln Ave,41.943838,-87.671469,POINT (-87.671469 41.943838)
Western Ave & Ardmore Ave,41.9867636,-87.6898796,POINT (-87.6898796 41.9867636)
Lavergne Ave & Fullerton Ave,41.924034,-87.751191,POINT (-87.751191 41.924034)
Spaulding Ave & Division St,41.9027065944,-87.709219571,POINT (-87.709219571 41.90270659438)
Artesian Ave & 55th St,41.79402,-87.68577,POINT (-87.68577 41.79402)
Harlem Ave & Bloomingdale Ave,41.91203,-87.80577,POINT (-87.80577 41.91203)
Homan Ave & 77th St,41.75374,-87.70751,POINT (-87.70751 41.75374)
Commercial Ave & 83rd St,41.744615,-87.551208,POINT (-87.551208 41.744615)
Central Park Blvd & 5th Ave,41.875679,-87.71547,POINT (-87.71547 41.875679)
Halsted St & Clybourn Ave,41.909668,-87.648128,POINT (-87.648128 41.909668)
Smith Park,41.892048,-87.689397,POINT (-87.689397 41.892048)
Long & Irving Park,41.953038,-87.7621632,POINT (-87.7621632 41.953038)
Kedzie Ave & Redfield Dr,41.76523,-87.70316,POINT (-87.70316 41.76523)
Kildare Ave & 26th St,41.8442315,-87.7321534,POINT (-87.7321534 41.8442315)
Cherry Ave & Blackhawk St,41.907221,-87.655618,POINT (-87.655618 41.907221)
Broadway & Wilson Ave,41.965221,-87.658139,POINT (-87.658139 41.965221)
Wentworth Ave & 33rd St,41.8345298856,-87.6318229814,POINT (-87.6318229814 41.83452988563)
Calumet Ave & 51st St,41.8022946509,-87.6180535802,POINT (-87.6180535802 41.80229465088)
Cottage Grove Ave & 51st St,41.803038,-87.606615,POINT (-87.606615 41.803038)
California Ave & 23rd Pl,41.8491096918,-87.6951398068,POINT (-87.6951398068 41.84910969176)
Augusta Blvd & Laramie Ave,41.8986607,-87.7554551,POINT (-87.7554551 41.8986607)
Kedzie Ave & 52nd St,41.79906,-87.70342,POINT (-87.70342 41.79906)
Kedzie Ave & Leland Ave,41.966686362,-87.7080519806,POINT (-87.7080519806 41.96668636205)
Oakley Ave & Touhy Ave,42.012342,-87.688243,POINT (-87.688243 42.012342)
Harlem Ave & Grace St,41.94894,-87.80683,POINT (-87.80683 41.94894)
Melvina Ave & Giddings Ave,41.96648,-87.78202,POINT (-87.78202 41.96648)
Lincoln Ave & Fullerton Ave,41.9241610291,-87.6463803649,POINT (-87.646380364895 41.924161029068)
Sacramento Ave & Lunt Ave,42.0082,-87.70461,POINT (-87.70461 42.0082)
Campbell Ave & North Ave,41.910535,-87.689556,POINT (-87.689556 41.910535)
Halsted St & Archer Ave,41.847203,-87.646795,POINT (-87.646795 41.847203)
Pulaski Rd & 51st St,41.800434,-87.7247496,POINT (-87.7247496 41.800434)
St Louis Ave & 51st St,41.80095,-87.71104,POINT (-87.71104 41.80095)
Calumet Ave & 33rd St,41.8349,-87.61793,POINT (-87.61793 41.8349)
Hoyne Ave & 34th St,41.8320245,-87.6778387,POINT (-87.6778387 41.8320245)
Clark St & Wellington Ave,41.9364968219,-87.6475386582,POINT (-87.6475386582 41.9364968219)
Halsted St & Polk St,41.87184,-87.64664,POINT (-87.64664 41.87184)
Streeter Dr/Grand Ave,41.892401,-87.612388,POINT (-87.612388 41.892401)
Western Ave & Congress Pkwy,41.8747488508,-87.6864452757,POINT (-87.6864452757 41.87474885079)
Loomis St & Archer Ave,41.8416325396,-87.6574349533,POINT (-87.6574349533 41.84163253965)
Summit Ave & 86th St,41.7378484767,-87.6448997855,POINT (-87.644899785519 41.737848476733)
Ogden Ave & Roosevelt Rd,41.8665014832,-87.68469707,POINT (-87.68469707 41.86650148316)
California Ave & Madison St,41.88098,-87.69598,POINT (-87.69598 41.88098)
Baltimore Ave & 133rd St,41.65349,-87.54703,POINT (-87.54703 41.65349)
Damen Ave & 74th St,41.7592740393,-87.6736342907,POINT (-87.673634290695 41.759274039331)
Newcastle Ave & Irving Park Rd,41.95256,-87.79755,POINT (-87.79755 41.95256)
Narragansett Ave & Wrightwood Ave,41.92729,-87.78523,POINT (-87.78523 41.92729)
Nagle Ave & Belmont Ave,41.93852,-87.78735,POINT (-87.78735 41.93852)
Michigan Ave & Oak St,41.90096039,-87.62377664,POINT (-87.62377664 41.90096039)
Western Ave & 111th St,41.691211035,-87.6812973619,POINT (-87.681297361851 41.691211034981)
Kenosha Ave & Wellington Ave,41.934457,-87.733795,POINT (-87.733795 41.934457)
Lawndale Ave & 111th St,41.6913191922,-87.7128857374,POINT (-87.712885737419 41.691319192211)
Oakley Ave & Irving Park Rd,41.9543408522,-87.6860796243,POINT (-87.6860796243 41.95434085219)
LaSalle St & Jackson Blvd,41.878166,-87.631929,POINT (-87.631929 41.878166)
Rhodes Ave & 32nd St,41.836208,-87.613533,POINT (-87.613533 41.836208)
Kedzie Ave & Lake St,41.884603285,-87.7063037436,POINT (-87.7063037436 41.88460328501)
Wells St & Institute Pl,41.8973798607,-87.6344203949,POINT (-87.634420394897 41.897379860723)
Wentworth Ave & 104th St,41.705307997,-87.6292169094,POINT (-87.629216909409 41.705307996998)
State St & Pershing Rd,41.823015238,-87.6265680185,POINT (-87.6265680185 41.82301523798)
Knox Ave & Marquette Ave,41.77114,-87.73774,POINT (-87.73774 41.77114)
Prairie Ave & 43rd St,41.816658893,-87.6194124619,POINT (-87.6194124619 41.81665889302)
Rush St & Superior St,41.8957647456,-87.6259080327,POINT (-87.6259080327 41.89576474564)
Pulaski Rd & 60th Pl,41.78315,-87.72257,POINT (-87.72257 41.78315)
Michigan Ave & 113th St,41.68905,-87.62079,POINT (-87.62079 41.68905)
Financial Pl & Ida B Wells Dr,41.875023628,-87.6330940425,POINT (-87.63309404254 41.875023628033)
Central Park Ave & Ardmore Ave,41.9866081,-87.7187674,POINT (-87.7187674 41.9866081)
Wood St & 33rd St,41.83427,-87.6706,POINT (-87.6706 41.83427)
Dearborn St & Erie St,41.893992,-87.629318,POINT (-87.629318 41.893992)
Humboldt Blvd & Armitage Ave,41.917513394,-87.7018089555,POINT (-87.7018089555 41.91751339399)
Lockwood Ave & Grand Ave,41.9175941,-87.7584143,POINT (-87.7584143 41.9175941)
Larrabee St & Armitage Ave,41.918084,-87.643749,POINT (-87.643749 41.918084)
State St & 95th St,41.7218499,-87.6228544,POINT (-87.6228544 41.7218499)
Western Ave & 101st St,41.71011,-87.68198,POINT (-87.68198 41.71011)
Sheridan Rd & Greenleaf Ave,42.0105865628,-87.6624120948,POINT (-87.6624120948 42.01058656284)
Rockwell St & 57th St,41.79031,-87.68888,POINT (-87.68888 41.79031)
Racine Ave & Congress Pkwy,41.87464,-87.65703,POINT (-87.65703 41.87464)
Ashland Ave & McDowell Ave,41.809719,-87.663477,POINT (-87.663477 41.809719)
Harding Ave & 26th St,41.844218,-87.723347,POINT (-87.723347 41.844218)
Kilbourn Ave & 49th St,41.80385,-87.73566,POINT (-87.73566 41.80385)
Clark St & Lake St,41.8860208277,-87.6308760584,POINT (-87.6308760584 41.88602082773)
Dearborn St & Van Buren St,41.876268,-87.629155,POINT (-87.629155 41.876268)
State St & 35th St,41.831036314,-87.6267975569,POINT (-87.626797556877 41.831036314016)
Central Ave & Lake St,41.887664,-87.765469,POINT (-87.765469 41.887664)
Kildare Ave & Archer Ave,41.80034,-87.73079,POINT (-87.73079 41.80034)
Yates Blvd & 93rd St,41.7261663902,-87.5662761927,POINT (-87.566276192665 41.726166390245)
Elizabeth St & Fulton St,41.886827,-87.658937,POINT (-87.658937 41.886827)
California Ave & Fletcher St,41.9384287915,-87.698007756,POINT (-87.698007756 41.93842879148)
Lawndale Ave & 59th St,41.78638,-87.7157,POINT (-87.7157 41.78638)
Hamilton Park,41.76252,-87.63734,POINT (-87.63734 41.76252)
Michigan Ave & Pearson St,41.89766,-87.62351,POINT (-87.62351 41.89766)
Sedgwick St & Webster Ave,41.922167,-87.638888,POINT (-87.638888 41.922167)
Karlov Ave & Armitage Ave,41.91748,-87.728952,POINT (-87.728952 41.91748)
Morgan St & Pershing Rd,41.823613,-87.650931,POINT (-87.650931 41.823613)
University Ave & 59th St,41.787878,-87.598906,POINT (-87.598906 41.787878)
Milwaukee Ave & Cuyler Ave,41.954468,-87.749594,POINT (-87.749594 41.954468)
Wabash Ave & 87th St,41.7365530183,-87.6226441562,POINT (-87.622644156218 41.73655301832)
Oglesby Ave & 100th St,41.7133974844,-87.5658416748,POINT (-87.565841674805 41.713397484422)
St. Louis Ave & Fullerton Ave,41.9248155968,-87.7144950628,POINT (-87.714495062828 41.924815596812)
Larrabee St & Menomonee St,41.91468,-87.64332,POINT (-87.64332 41.91468)
Kedvale Ave & Peterson Ave,41.9900762,-87.7317073,POINT (-87.7317073 41.9900762)
Damen Ave & 77th St,41.7542030568,-87.6732245,POINT (-87.6732245 41.754203056763)
Cottage Grove Ave & 47th St,41.809855,-87.606755,POINT (-87.606755 41.809855)
Constance Ave & 95th St,41.722290741,-87.5789684057,POINT (-87.578968405724 41.722290740953)
Theater on the Lake,41.926277,-87.630834,POINT (-87.630834 41.926277)
Cumberland Ave & Catherine Ave,41.97732,-87.83674,POINT (-87.83674 41.97732)
Dusable Harbor,41.886976,-87.612813,POINT (-87.612813 41.886976)
Long Ave & Diversey Ave,41.93104,-87.76124,POINT (-87.76124 41.93104)
Ewing Ave & 106th St,41.70266,-87.53564,POINT (-87.53564 41.70266)
Clybourn Ave & Division St,41.904613,-87.640552,POINT (-87.640552 41.904613)
Sheffield Ave & Wrightwood Ave,41.928712,-87.653833,POINT (-87.653833 41.928712)
Burley Ave & 91st St,41.73054,-87.54558,POINT (-87.54558 41.73054)
Clark St & Leland Ave,41.9670878392,-87.6672908664,POINT (-87.667290866375 41.967087839184)
California Ave & Francis Pl,41.9184911537,-87.6974228024,POINT (-87.697422802448 41.918491153687)
Hegewisch Metra Station,41.6485007627,-87.5460898876,POINT (-87.546089887619 41.648500762664)
Wood St & 35th St,41.8301046542,-87.6702983089,POINT (-87.6702983089 41.83010465416)
Central Park Ave & North Ave,41.9096568756,-87.7166319516,POINT (-87.7166319516 41.90965687563)
Indiana Ave & 103rd St,41.7071702712,-87.6184719801,POINT (-87.618471980095 41.707170271178)
Rockwell St & Archer Ave,41.82272,-87.68982,POINT (-87.68982 41.82272)
Halsted St & 51st St,41.8018316405,-87.645213904,POINT (-87.645213904 41.80183164049)
State St & 123rd St,41.6706438369,-87.6225864887,POINT (-87.622586488724 41.67064383688)
Wacker Dr & Washington St,41.8831433644,-87.6372420788,POINT (-87.637242078781 41.88314336439)
Bradley Park,41.7178783019,-87.5645917654,POINT (-87.564591765404 41.717878301935)
Wallace St & 35th St,41.8307070514,-87.641255334,POINT (-87.64125533402 41.830707051441)
Jeffery Blvd & 76th St,41.757120068,-87.5758393587,POINT (-87.5758393587 41.75712006802)
Altgeld Gardens,41.6566655297,-87.5988006592,POINT (-87.59880065918 41.656665529674)
California Ave & 26th St,41.8436799146,-87.6949685812,POINT (-87.6949685812 41.843679914577)
Torrence Ave & 126th Pl,41.6663120083,-87.5572156906,POINT (-87.557215690613 41.666312008257)
California Ave & 71st St,41.764748,-87.693121,POINT (-87.693121 41.764748)
Keystone Ave & Montrose Ave,41.9611080162,-87.7289701012,POINT (-87.7289701012 41.96110801623)
Dodge Ave & Main St,42.0346318516,-87.699187696,POINT (-87.69918769598 42.034631851616)
Halsted St & North Branch St,41.8993902855,-87.6485449076,POINT (-87.64854490757 41.899390285497)
Michigan Ave & 114th St,41.6870147947,-87.6210522652,POINT (-87.621052265167 41.687014794671)
State St & 111th St,41.69251,-87.62287,POINT (-87.62287 41.69251)
Morgan St & Polk St,41.871737,-87.65103,POINT (-87.65103 41.871737)
Michigan Ave & Jackson Blvd,41.8777679,-87.624164,POINT (-87.624164 41.8777679)
Delano Ct & Roosevelt Rd,41.867491,-87.63219,POINT (-87.63219 41.867491)
Martin Luther King Dr & 111th St,41.6926389565,-87.6136738648,POINT (-87.613673864847 41.692638956472)
Dauphin Ave & 103rd St,41.7072503678,-87.6076626778,POINT (-87.607662677765 41.707250367782)
Lynch Ave & Elston Ave,41.98096,-87.76149,POINT (-87.76149 41.98096)
State St & Pearson St,41.897448,-87.628722,POINT (-87.628722 41.897448)
Austin Blvd & Lake St,41.8879437943,-87.7742734551,POINT (-87.774273455143 41.887943794272)
Kilbourn Ave & Irving Park Rd,41.953733,-87.740569,POINT (-87.740569 41.953733)
Laflin St & Cullerton St,41.8549145758,-87.6635599136,POINT (-87.663559913635 41.854914575766)
Calumet Ave & 71st St,41.7655080058,-87.616917925,POINT (-87.616917925 41.76550800581)
Kedzie Ave & Roosevelt Rd,41.8664927817,-87.7064961757,POINT (-87.7064961757 41.86649278172)
Broadway & Sheridan Rd,41.952833,-87.649993,POINT (-87.649993 41.952833)
Clinton St & Polk St,41.8714665178,-87.6409491327,POINT (-87.6409491327 41.87146651779)
St. Louis Ave & Balmoral Ave,41.9803942348,-87.7161149615,POINT (-87.7161149615 41.98039423475)
Halsted St & 96th St,41.7197121836,-87.643019557,POINT (-87.643019556999 41.719712183619)
Paulina St & Flournoy St,41.8730610879,-87.6691348851,POINT (-87.669134885073 41.873061087898)
Chicago State University,41.7189634217,-87.6082956791,POINT (-87.608295679092 41.718963421655)
Orange Ave & Addison St,41.94485,-87.82423,POINT (-87.82423 41.94485)
Sheridan Rd & Loyola Ave,42.0010437798,-87.6611982433,POINT (-87.6611982433 42.00104377979)
Western Ave & 28th St,41.8415177081,-87.6851314409,POINT (-87.6851314409 41.84151770807)
California Ave & Byron St,41.9521621933,-87.698051113,POINT (-87.698051113 41.95216219326)
MLK Jr Dr & 63rd St,41.7800806366,-87.6159428567,POINT (-87.6159428567 41.78008063659)
Stetson Ave & South Water St,41.886835,-87.62232,POINT (-87.62232 41.886835)
Olive Harvey College,41.7095811353,-87.5902336836,POINT (-87.590233683586 41.709581135263)
Damen Ave & Foster Ave,41.9758109756,-87.6795098986,POINT (-87.679509898579 41.975810975575)
Baltimore Ave & 87th St,41.7373356004,-87.5485146046,POINT (-87.548514604568 41.737335600417)
Major Taylor Trail & 124th St,41.6686963533,-87.6371133327,POINT (-87.637113332748 41.668696353322)
Budlong Woods Library,41.9836647089,-87.6964225611,POINT (-87.6964225611 41.98366470886)
Leavitt St & Archer Ave,41.8287920199,-87.6806044594,POINT (-87.6806044594 41.82879201994)
Ridge Blvd & Touhy Ave,42.0121322774,-87.6829126443,POINT (-87.6829126443 42.01213227742)
Clark St & Columbia Ave,42.0044506293,-87.6724024047,POINT (-87.6724024047 42.00445062934)
Campbell Ave & Fullerton Ave,41.9246324716,-87.6893070063,POINT (-87.6893070063 41.92463247165)
Troy St & Elston Ave,41.9452435685,-87.7066499009,POINT (-87.7066499009 41.94524356848)
DuSable Lake Shore Dr & Wellington Ave,41.9366884495,-87.6368290186,POINT (-87.636829018593 41.9366884495)
Cottage Grove Ave & 67th St,41.773720952,-87.60563486,POINT (-87.60563486 41.77372095205)
Clyde Ave & 87th St,41.7371514643,-87.5727403164,POINT (-87.572740316391 41.737151464311)
Damen Ave & 59th St,41.7858610651,-87.6741439104,POINT (-87.674143910408 41.785861065132)
Farragut Ave & Central Ave,41.97666,-87.76823,POINT (-87.76823 41.97666)
Halsted St & 111th St,41.6922625559,-87.6426118612,POINT (-87.642611861229 41.692262555892)
Kedzie Ave & Chicago Ave,41.8954653031,-87.7061278837,POINT (-87.7061278837 41.89546530305)
Ewing Ave & 97th St,41.71982,-87.53542,POINT (-87.53542 41.71982)
Vincennes Ave & 104th St,41.704925565,-87.6568681096,POINT (-87.656868109589 41.704925564998)
Damen Ave & Thomas St (Augusta Blvd),41.901315,-87.677409,POINT (-87.677409 41.901315)
Field Museum,41.865312,-87.617867,POINT (-87.617867 41.865312)
Halsted St & 18th St,41.8575056803,-87.6459914446,POINT (-87.645991444588 41.857505680317)
Loomis Blvd & 84th St,41.7414865286,-87.6584100723,POINT (-87.658410072327 41.741486528618)
Monticello Ave & Irving Park Rd,41.9540048388,-87.7191281797,POINT (-87.7191281797 41.95400483876)
Shields Ave & 43rd St,41.8162076786,-87.6348193497,POINT (-87.6348193497 41.81620767856)
Wolcott Ave & Fargo Ave,42.016977,-87.677725,POINT (-87.677725 42.016977)
Woodlawn Ave & Lake Park Ave,41.8140927105,-87.5970051479,POINT (-87.5970051479 41.81409271048)
Homewood Ave & 115th St,41.684595072,-87.6707080007,POINT (-87.67070800066 41.684595072026)
Washtenaw Ave & Ogden Ave,41.8619304928,-87.6934504509,POINT (-87.693450450897 41.861930492783)
Lincoln Ave & Winona St,41.9749112968,-87.6925025594,POINT (-87.6925025594 41.97491129677)
Lincoln Ave & Belle Plaine Ave,41.9560035508,-87.6801614463,POINT (-87.680161446333 41.956003550785)
Central Park Ave & Elbridge Ave,41.9353372826,-87.7168892935,POINT (-87.7168892935 41.93533728263)
Francisco Ave & Foster Ave,41.9756327252,-87.7014194389,POINT (-87.7014194389 41.97563272521)
Millard Ave & 26th St,41.8445311246,-87.715921998,POINT (-87.715921998024 41.844531124622)
Calumet Ave & 35th St,41.831379,-87.618034,POINT (-87.618034 41.831379)
Clark St & Lincoln Ave,41.915689,-87.6346,POINT (-87.6346 41.915689)
East End Ave & 87th St,41.7368152144,-87.5828012824,POINT (-87.582801282406 41.736815214407)
Cottage Grove Ave & 111th Pl,41.6917097585,-87.610001564,POINT (-87.610001564026 41.69170975847)
Racine Ave & Belmont Ave,41.939743,-87.658865,POINT (-87.658865 41.939743)
Laramie Ave & Gladys Ave,41.875806,-87.755285,POINT (-87.755285 41.875806)
Wentworth Ave & 24th St,41.8500836935,-87.6321405172,POINT (-87.632140517235 41.850083693476)
Wentworth Ave & 63rd St,41.7800796326,-87.6297463052,POINT (-87.6297463052 41.78007963264)
Calumet Park,41.7137098304,-87.5308442116,POINT (-87.530844211578 41.713709830356)
Parnell Ave & 127th St,41.66338,-87.63429,POINT (-87.63429 41.66338)
Winchester Ave & Elston Ave,41.9240908504,-87.6764600747,POINT (-87.6764600747 41.92409085038)
Marquette Ave & 89th St,41.7336687907,-87.5583422184,POINT (-87.558342218399 41.733668790715)
Damen Ave & Grand Ave,41.892394453,-87.676885128,POINT (-87.676885128021 41.892394452963)
Sawyer Ave & Irving Park Rd,41.9535861789,-87.7093107999,POINT (-87.7093107999 41.95358617895)
Eggleston Ave & 92nd St,41.7275756593,-87.6348280907,POINT (-87.634828090668 41.7275756593)
Clinton St & Washington Blvd,41.88338,-87.64117,POINT (-87.64117 41.88338)
Clark St & Elm St,41.902973,-87.63128,POINT (-87.63128 41.902973)
Broadway & Belmont Ave,41.940106,-87.645451,POINT (-87.645451 41.940106)
Burnham Greenway & 105th St,41.7045750872,-87.52823174,POINT (-87.528231739998 41.704575087207)
Central Park Ave & Ogden Ave,41.8540635039,-87.7151173353,POINT (-87.71511733532 41.854063503874)
Pulaski Rd & Congress Pkwy,41.87441021,-87.7260915935,POINT (-87.726091593504 41.874410210038)
Damen Ave & Cullerton St,41.8549665188,-87.6756995916,POINT (-87.675699591637 41.854966518754)
Houston Ave & 92nd St,41.7282042154,-87.549700141,POINT (-87.549700140953 41.728204215358)
Kildare Ave & Division St,41.902393,-87.733598,POINT (-87.733598 41.902393)
Racine Ave & 35th St,41.8306885647,-87.6562106609,POINT (-87.656210660934 41.830688564721)
63rd St Beach,41.7809109642,-87.5763237476,POINT (-87.576323747635 41.780910964248)
St Louis Ave & Foster Ave,41.9759837,-87.7159844,POINT (-87.7159844 41.9759837)
Halsted St & 63rd St,41.7793811423,-87.6446208145,POINT (-87.6446208145 41.77938114228)
Vernon Ave & 107th St,41.7001213792,-87.612259984,POINT (-87.612259984016 41.700121379239)
Jefferson St & Monroe St,41.8803296336,-87.6427459717,POINT (-87.64274597168 41.880329633635)
Halsted St & 56th St,41.792929646,-87.6449900565,POINT (-87.6449900565 41.79292964599)
Halsted St & 78th St,41.7524870125,-87.6439021575,POINT (-87.643902157488 41.75248701249)
Torrence Ave & 106th St,41.7028008502,-87.5597262383,POINT (-87.559726238251 41.702800850226)
Doty Ave & 111th St,41.6950104494,-87.5987148285,POINT (-87.598714828491 41.695010449381)
Eberhart Ave & 91st St,41.7292851573,-87.6110315323,POINT (-87.611031532288 41.729285157255)
Halsted St & 47th Pl,41.8081339148,-87.6456165545,POINT (-87.6456165545 41.80813391481)
Clark St & Elmdale Ave,41.9908604481,-87.66972363,POINT (-87.669723629951 41.990860448126)
Kildare Ave & North Ave,41.9095392,-87.7338518,POINT (-87.7338518 41.9095392)
Troy St & North Ave,41.9097693017,-87.7052804871,POINT (-87.7052804871 41.90976930169)
Racine Ave & 57th St,41.7896968805,-87.6546978951,POINT (-87.65469789505 41.789696880483)
Halsted St & 83rd St,41.74307,-87.6437,POINT (-87.6437 41.74307)
Southport Ave & Belmont Ave,41.9394777504,-87.6637476683,POINT (-87.663747668266 41.939477750405)
Larrabee St & Oak St,41.9002194932,-87.6429854676,POINT (-87.6429854676 41.90021949323)
Cottage Grove Ave & 71st St,41.765719037,-87.604959713,POINT (-87.604959713 41.76571903697)
Perry Ave & 69th St,41.7692930899,-87.6281959291,POINT (-87.6281959291 41.76929308995)
Canal St & Madison St,41.882409,-87.639767,POINT (-87.639767 41.882409)
Calumet Ave & 21st St,41.8541842495,-87.6191537415,POINT (-87.6191537415 41.85418424947)
Leamington Ave & Hirsch St,41.9058405,-87.7548602,POINT (-87.7548602 41.9058405)
California Ave & Lake St,41.8844539566,-87.6962981368,POINT (-87.6962981368 41.88445395657)
Clark St & Wrightwood Ave,41.929546,-87.643118,POINT (-87.643118 41.929546)
Linder Ave & Montrose Ave,41.96081,-87.76488,POINT (-87.76488 41.96081)
900 W Harrison St,41.874754,-87.649807,POINT (-87.649807 41.874754)
Green St & Washington Blvd,41.883181306,-87.6487246156,POINT (-87.648724615574 41.883181305974)
Seeley Ave & Roscoe St,41.943403,-87.679618,POINT (-87.679618 41.943403)
Meade Ave & Fullerton Ave,41.924751,-87.778272,POINT (-87.778272 41.924751)
California Ave & Granville Ave,41.9941803,-87.6995596,POINT (-87.6995596 41.9941803)
Ewing Ave & Burnham Greenway,41.70999,-87.5355,POINT (-87.5355 41.70999)
Michigan Ave & 105th St,41.70346,-87.62037,POINT (-87.62037 41.70346)
Broadway & Granville Ave,41.9947796884,-87.6602845349,POINT (-87.6602845349 41.9947796884)
Ravenswood Ave & Lawrence Ave,41.968445,-87.674226,POINT (-87.674226 41.968445)
Rush St & Cedar St,41.9023087012,-87.627690528,POINT (-87.627690528 41.90230870122)
Shabbona Park,41.9448,-87.79932,POINT (-87.79932 41.9448)
Ogden Ave & Chicago Ave,41.896362458,-87.6540612729,POINT (-87.6540612729 41.896362458)
Oriole Ave & Irving Park Rd,41.95224,-87.81697,POINT (-87.81697 41.95224)
Cornell Ave & Hyde Park Blvd,41.802406,-87.586924,POINT (-87.586924 41.802406)
Sheridan Rd & Montrose Ave,41.96167,-87.65464,POINT (-87.65464 41.96167)
Clinton St & Lake St,41.885637,-87.641823,POINT (-87.641823 41.885637)
Lexington St & California Ave,41.8719938,-87.6958108,POINT (-87.6958108 41.8719938)
Wentworth Ave & 92nd St,41.72714,-87.62886,POINT (-87.62886 41.72714)
Ashland Ave & Lake St,41.88592,-87.66717,POINT (-87.66717 41.88592)
Fairfield Ave & Pratt Blvd,42.0044482,-87.6985973,POINT (-87.6985973 42.0044482)
Pine Grove Ave & Waveland Ave,41.9494727409,-87.6464527845,POINT (-87.646452784538 41.949472740883)
Martin Luther King Dr & 87th St,41.73677,-87.61439,POINT (-87.61439 41.73677)
Shields Ave & 57th St,41.79076,-87.6345,POINT (-87.6345 41.79076)
Green St & Madison St,41.881859328,-87.6492637396,POINT (-87.649263739586 41.881859328038)
Clark St & Newport St,41.94454,-87.654678,POINT (-87.654678 41.94454)
Wood St & Hubbard St,41.889715,-87.671966,POINT (-87.671966 41.889715)
McCormick Place,41.8513751729,-87.6188346489,POINT (-87.6188346489 41.8513751729)
Western Blvd & 48th Pl,41.805661,-87.683392,POINT (-87.683392 41.805661)
Burling St & Diversey Pkwy,41.93314,-87.64776,POINT (-87.64776 41.93314)
St. Clair St & Erie St,41.8943451374,-87.6227983832,POINT (-87.622798383236 41.894345137424)
Wood St & Augusta Blvd,41.899181,-87.6722,POINT (-87.6722 41.899181)
Princeton Ave & Garfield Blvd,41.794982,-87.633124,POINT (-87.633124 41.794982)
Kildare Ave & 85th St (Kostner Ave & 87th St TEMPORARY),41.734929,-87.731187,POINT (-87.731187 41.734929)
Oconto Ave & Belmont Ave,41.93783,-87.80788,POINT (-87.80788 41.93783)
Overhill Ave & Belmont Ave,41.93799,-87.81915,POINT (-87.81915 41.93799)
Kedzie Ave & 24th St,41.848193,-87.705412,POINT (-87.705412 41.848193)
Stony Island Ave & 67th St,41.7734584995,-87.5853397391,POINT (-87.5853397391 41.77345849948)
Sedgwick St & North Ave,41.910983,-87.638525,POINT (-87.638525 41.910983)
Stony Island Ave & 82nd St,41.746559,-87.586005,POINT (-87.586005 41.746559)
Orleans St & Hubbard St,41.890028,-87.636618,POINT (-87.636618 41.890028)
Racine Ave & Wrightwood Ave,41.928887,-87.658971,POINT (-87.658971 41.928887)
Sheffield Ave & Wellington Ave,41.9362534831,-87.6526620984,POINT (-87.652662098408 41.936253483141)
State St & 33rd St,41.834734,-87.625813,POINT (-87.625813 41.834734)
Kedzie Ave & 54th Pl,41.793446,-87.70345,POINT (-87.70345 41.793446)
Halsted St & Maxwell St,41.864883,-87.647071,POINT (-87.647071 41.864883)
Clark St & Newport St,41.94454,-87.654678,POINT (-87.654678 41.94454)
Princeton Ave & 47th St,41.8093177092,-87.633449288,POINT (-87.633449288 41.80931770924)
Racine Ave & Belmont Ave,41.939743,-87.658865,POINT (-87.658865 41.939743)
Harding Ave & Division St,41.9023453,-87.7250744,POINT (-87.7250744 41.9023453)
Stony Island Ave & 75th St,41.7586696704,-87.586882871,POINT (-87.586882871 41.7586696704)
DuSable Lake Shore Dr & North Blvd,41.911722,-87.626804,POINT (-87.626804 41.911722)
Blackstone Ave & Hyde Park Blvd,41.802562,-87.590368,POINT (-87.590368 41.802562)
Merrimac Park,41.95261,-87.78535,POINT (-87.78535 41.95261)
Dodge Ave & Mulford St,42.023463,-87.699595,POINT (-87.699595 42.023463)
Woodlawn Ave & 58th St,41.789381,-87.596479,POINT (-87.596479 41.789381)
Steelworkers Park (Updated),41.737948,-87.530836,POINT (-87.530836 41.737948)
Kenton Ave & Madison St,41.88042,-87.74108,POINT (-87.74108 41.88042)
Franklin St & Lake St,41.885837,-87.6355,POINT (-87.6355 41.885837)
Homan Ave & Arthington Ave,41.86963,-87.71055,POINT (-87.71055 41.86963)
Richmond St & Lincoln Ave,41.9881174,-87.7031754,POINT (-87.7031754 41.9881174)
Lake Park Ave & 56th St,41.79161,-87.58748,POINT (-87.58748 41.79161)
Elizabeth St & 47th St,41.80839,-87.656526,POINT (-87.656526 41.80839)
Mulligan Ave & Archer Ave,41.79296,-87.78052,POINT (-87.78052 41.79296)
Rockwell St & Eastwood Ave,41.9659001398,-87.6936384935,POINT (-87.6936384935 41.96590013976)
Clinton St & Madison St,41.8827519657,-87.6411902905,POINT (-87.641190290451 41.882751965686)
DuSable Lake Shore Dr & Belmont Ave,41.940775,-87.639192,POINT (-87.639192 41.940775)
Lincolnwood Dr & Central St,42.064854,-87.715297,POINT (-87.715297 42.064854)
Ewing Ave & 98th St,41.71781,-87.53504,POINT (-87.53504 41.71781)
Wells St & Polk St,41.8727315423,-87.6335164905,POINT (-87.633516490459 41.872731542263)
Wood St & Taylor St (Temp),41.8692652184,-87.6737308502,POINT (-87.67373085022 41.869265218438)
Exchange Ave & 79th St,41.7521150063,-87.5520070003,POINT (-87.552007000253 41.752115006333)
Pulaski Rd & Ann Lurie Pl,41.81644,-87.7248,POINT (-87.7248 41.81644)
Wells St & Walton St,41.89993001,-87.63443007,POINT (-87.63443007 41.89993001)
Grace St & Central Ave,41.9495327,-87.7672648,POINT (-87.7672648 41.9495327)
Sacramento Ave & 51st St,41.80068,-87.69895,POINT (-87.69895 41.80068)
Canal St & Monroe St,41.8829056,-87.6397409,POINT (-87.6397409 41.8829056)
Lamon Ave & Armitage Ave,41.91676,-87.749458,POINT (-87.749458 41.91676)
South Chicago Ave & 83rd St,41.743921,-87.575225,POINT (-87.575225 41.743921)
Canal St & Jackson Blvd,41.878125,-87.639968,POINT (-87.639968 41.878125)
Winthrop Ave & Lawrence Ave,41.968812,-87.657659,POINT (-87.657659 41.968812)
Buckingham Fountain,41.876368,-87.6205586,POINT (-87.6205586 41.876368)
Kildare Ave & 47th St,41.80762,-87.73084,POINT (-87.73084 41.80762)
Halsted St & Roosevelt Rd,41.867324,-87.648625,POINT (-87.648625 41.867324)
Cottage Grove Ave & Oakwood Blvd,41.822985,-87.6071,POINT (-87.6071 41.822985)
Broadway & Argyle St,41.97423,-87.6597735,POINT (-87.6597735 41.97423)
Monticello Ave & Lawrence Ave,41.968204,-87.719547,POINT (-87.719547 41.968204)
Kedzie Ave & Archer Ave,41.81447,-87.70411,POINT (-87.70411 41.81447)
Commercial Ave & 130th St,41.6591504276,-87.5507622957,POINT (-87.550762295723 41.659150427598)
Lakefront Trail & Wilson Ave,41.9668559,-87.6430926,POINT (-87.6430926 41.9668559)
Spaulding Ave & 16th St,41.8590732,-87.7078929,POINT (-87.7078929 41.8590732)
Leavitt St & Belmont Ave,41.939354,-87.683282,POINT (-87.683282 41.939354)
State St & Randolph St,41.8846210726,-87.6278342307,POINT (-87.627834230661 41.884621072579)
Eastlake Ter & Howard St,42.0192025019,-87.6643028855,POINT (-87.664302885532 42.019202501932)
Rockwell St & 47th St,41.80853,-87.68942,POINT (-87.68942 41.80853)
Milwaukee Ave & Agatite Ave,41.9615,-87.75489,POINT (-87.75489 41.9615)
Laramie Ave & Irving Park Rd,41.9533354,-87.7583844,POINT (-87.7583844 41.9533354)
Kilbourn Ave & Diversey Ave,41.93179,-87.73934,POINT (-87.73934 41.93179)
Elizabeth St & Randolph St,41.884336,-87.658902,POINT (-87.658902 41.884336)
Lamon Ave & Chicago Ave,41.8950179,-87.7484986,POINT (-87.7484986 41.8950179)
Nordica Ave & Medill Ave,41.92227,-87.80202,POINT (-87.80202 41.92227)
Archer Ave & 49th St,41.8042,-87.72082,POINT (-87.72082 41.8042)
Kingsbury St & Erie St,41.8939139,-87.6417358,POINT (-87.6417358 41.8939139)
Kedzie Ave & 48th Pl,41.8047581238,-87.7042193688,POINT (-87.704219368794 41.804758123768)
Wabash Ave & Wacker Pl,41.886875,-87.62603,POINT (-87.62603 41.886875)
Western Ave & Winnebago Ave,41.91552,-87.687022,POINT (-87.687022 41.91552)
Lavergne Ave & Diversey Ave,41.93128,-87.75141,POINT (-87.75141 41.93128)
Springfield Ave & 80th St,41.74763,-87.71945,POINT (-87.71945 41.74763)
Halsted St & 93rd St,41.72489,-87.64358,POINT (-87.64358 41.72489)
Bissell St & Armitage Ave*,41.9182955629,-87.6521833241,POINT (-87.652183324099 41.918295562935)
Wabash Ave & 16th St,41.860384,-87.625813,POINT (-87.625813 41.860384)
Wells St & Hubbard St,41.889906,-87.634266,POINT (-87.634266 41.889906)
Damen Ave & Sunnyside Ave,41.96325,-87.679258,POINT (-87.679258 41.96325)
Bosworth Ave & Howard St,42.019537,-87.669563,POINT (-87.669563 42.019537)
Sangamon St & Lake St,41.8857792524,-87.6510246098,POINT (-87.651024609804 41.885779252404)
Broadway & Cornelia Ave,41.945529,-87.646439,POINT (-87.646439 41.945529)
Kedzie Ave & Jackson Blvd,41.877161,-87.706134,POINT (-87.706134 41.877161)
Albany Ave & Douglas Blvd,41.8631643,-87.7030815,POINT (-87.7030815 41.8631643)
Woodlawn Ave & 75th St,41.75916,-87.595751,POINT (-87.595751 41.75916)
Michigan Ave & Madison St,41.882134,-87.625125,POINT (-87.625125 41.882134)
Mozart St & Jackson Blvd,41.8775,-87.6974,POINT (-87.6974 41.8775)
Kedzie Ave & 21st St,41.8535336321,-87.7050730318,POINT (-87.7050730318 41.85353363213)
Albany Ave & 26th St,41.844507,-87.701655,POINT (-87.701655 41.844507)
Adler Planetarium,41.866095,-87.607267,POINT (-87.607267 41.866095)
Elmwood Ave & Austin St,42.025784,-87.684107,POINT (-87.684107 42.025784)
Stony Island Ave & 90th St,41.7313949433,-87.5857436657,POINT (-87.585743665695 41.731394943302)
Columbus Dr & Randolph St,41.884728,-87.619521,POINT (-87.619521 41.884728)
Manistee Ave & 95th St,41.7226,-87.55692,POINT (-87.55692 41.7226)
Western Ave & 21st St,41.854109,-87.685838,POINT (-87.685838 41.854109)
Homan Ave & 26th St,41.84425,-87.70983,POINT (-87.70983 41.84425)
Rainbow - Beach,41.7578709652,-87.5491767528,POINT (-87.54917675279 41.757870965225)
Michigan Ave & Washington St,41.8839840647,-87.6246839762,POINT (-87.624683976173 41.883984064727)
Lawler Ave & 50th St,41.80217,-87.74894,POINT (-87.74894 41.80217)
Orleans St & Elm St,41.902924,-87.637715,POINT (-87.637715 41.902924)
Lowell Ave & Armitage Ave,41.9170767,-87.7353543,POINT (-87.7353543 41.9170767)
Halsted St & Roscoe St,41.9436315,-87.6490833,POINT (-87.6490833 41.9436315)
Lakefront Trail & Bryn Mawr Ave,41.9840441152,-87.6522812247,POINT (-87.652281224728 41.984044115192)
Millennium Park,41.8810317,-87.62408432,POINT (-87.62408432 41.8810317)
Ellis Ave & 53rd St,41.7993362626,-87.6009581145,POINT (-87.6009581145 41.79933626261)
Damen Ave & Lake St,41.8849659,-87.6768354,POINT (-87.6768354 41.8849659)
Commercial Ave & 97th St,41.71893,-87.55112,POINT (-87.55112 41.71893)
Wabash Ave & Grand Ave,41.891466,-87.626761,POINT (-87.626761 41.891466)
Milwaukee Ave & Ainslie St,41.96861,-87.76108,POINT (-87.76108 41.96861)
Larrabee St & Webster Ave,41.921822,-87.64414,POINT (-87.64414 41.921822)
Walden Pkwy & 100th St,41.7121641036,-87.6677334309,POINT (-87.667733430862 41.712164103598)
Avers Ave & 16th St,41.85909,-87.72121,POINT (-87.72121 41.85909)
Field Blvd & South Water St,41.8863490627,-87.6175165471,POINT (-87.6175165471 41.88634906269)
Southport Ave & Irving Park Rd,41.954177,-87.664358,POINT (-87.664358 41.954177)
Wentworth Ave & Cermak Rd*,41.8532144185,-87.6318722963,POINT (-87.631872296333 41.85321441852)
Racine Ave & 115th St,41.68476,-87.65196,POINT (-87.65196 41.68476)
Southport Ave & Wellington Ave,41.9357746177,-87.6636001468,POINT (-87.66360014677 41.935774617665)
Clark St & Touhy Ave,42.0125601154,-87.6743671152,POINT (-87.6743671152 42.01256011541)
Larrabee St & Kingsbury St,41.897764,-87.642884,POINT (-87.642884 41.897764)
Eggleston Ave & 115th St,41.68507,-87.63361,POINT (-87.63361 41.68507)
Wabash Ave & 83rd St,41.7433597623,-87.6228439808,POINT (-87.622843980789 41.743359762253)
Shedd Aquarium,41.8672259568,-87.6153553902,POINT (-87.6153553902 41.86722595682)
Laramie Ave & Addison St,41.9456842,-87.7569344,POINT (-87.7569344 41.9456842)
Noble St & Milwaukee Ave,41.9007,-87.662607,POINT (-87.662607 41.9007)
Dan Ryan Woods & 83rd St,41.742805,-87.680177,POINT (-87.680177 41.742805)
Wells St & Huron St,41.894722,-87.634362,POINT (-87.634362 41.894722)
Montrose Harbor,41.963982,-87.638181,POINT (-87.638181 41.963982)
Ashland Ave & Augusta Blvd,41.89962,-87.66841,POINT (-87.66841 41.89962)
Dauphin Ave & 87th St,41.73648,-87.601252,POINT (-87.601252 41.73648)
Halsted St & 73rd St,41.761605438,-87.6441609767,POINT (-87.644160976661 41.761605438044)
Ashland Ave & 74th St,41.7592360243,-87.6634740829,POINT (-87.663474082947 41.759236024259)
Peoria St & Jackson Blvd,41.8776415963,-87.6496177912,POINT (-87.649617791176 41.877641596275)
Kilbourn Ave & Belden Ave,41.922369,-87.739024,POINT (-87.739024 41.922369)
Southport Ave & Waveland Ave,41.948226,-87.6640712,POINT (-87.6640712 41.948226)
Francisco Ave & 47th St,41.80849,-87.69673,POINT (-87.69673 41.80849)
University Ave & 65th St,41.77694,-87.59842,POINT (-87.59842 41.77694)
Hale Ave & 107th St,41.6992061681,-87.6689189672,POINT (-87.668918967247 41.699206168128)
Damen Ave & Pershing Rd,41.823192,-87.676597,POINT (-87.676597 41.823192)
Franklin St & Illinois St,41.8910233103,-87.6354798675,POINT (-87.635479867458 41.891023310252)
Narragansett Ave & McLean Ave,41.9159,-87.78511,POINT (-87.78511 41.9159)
DuSable Lake Shore Dr & Monroe St,41.880958,-87.616743,POINT (-87.616743 41.880958)
Kedzie Ave & 57th St,41.78983,-87.7031,POINT (-87.7031 41.78983)
Green St & Randolph St*,41.8836016573,-87.6486267149,POINT (-87.648626714945 41.883601657275)
Meade Ave & Addison St,41.94595,-87.77888,POINT (-87.77888 41.94595)
Kostner Ave & Bryn Mawr Ave,41.982765,-87.738094,POINT (-87.738094 41.982765)
Michigan Ave & 108th St,41.69815,-87.62111,POINT (-87.62111 41.69815)
Aberdeen St & Jackson Blvd,41.87772613,-87.65478743,POINT (-87.65478743 41.87772613)
Marshfield Ave & 59th St,41.786833,-87.666215,POINT (-87.666215 41.786833)
May St & Taylor St,41.869375,-87.65544,POINT (-87.65544 41.869375)
Ashland Ave & Division St,41.90301,-87.66877,POINT (-87.66877 41.90301)
Halsted St & 69th St,41.7690617203,-87.6446135779,POINT (-87.6446135779 41.76906172032)
Peterson/Ridge Metra,41.9918,-87.67489,POINT (-87.67489 41.9918)
Steelworkers Park,41.73793,-87.53091,POINT (-87.53091 41.73793)
New St & Illinois St,41.8908470406,-87.6186168194,POINT (-87.618616819382 41.890847040624)
Laramie Ave & Bloomingdale Ave,41.91432,-87.75572,POINT (-87.75572 41.91432)
Major Ave & Addison St,41.94606,-87.76915,POINT (-87.76915 41.94606)
Monticello Ave & Chicago Ave,41.89581,-87.71763,POINT (-87.71763 41.89581)
Long Ave & North Ave,41.9092147,-87.7609189,POINT (-87.7609189 41.9092147)
Higgins Ave & Austin Ave,41.97342,-87.77865,POINT (-87.77865 41.97342)
State St & 127th St,41.66388,-87.622,POINT (-87.622 41.66388)
Elston Ave & Carmen Ave,41.97354,-87.74955,POINT (-87.74955 41.97354)
Loomis St & 89th St,41.7323797533,-87.6580694318,POINT (-87.658069431782 41.732379753296)
Pine Ave & Division St,41.90234,-87.76103,POINT (-87.76103 41.90234)
Austin Ave & Milwaukee Ave,41.98736,-87.77805,POINT (-87.77805 41.98736)
Milwaukee Ave & Rockwell St,41.92033,-87.69309,POINT (-87.69309 41.92033)
Wellington Ave & Mulligan Ave,41.93473,-87.78436,POINT (-87.78436 41.93473)
Karlov Ave & Fillmore St,41.86815,-87.7276,POINT (-87.7276 41.86815)
Archer & Wentworth,41.8546868,-87.6308531,POINT (-87.6308531 41.8546868)
Ashland Ave & 78th St,41.7522048494,-87.6636993885,POINT (-87.663699388504 41.752204849411)
Clark St & Armitage Ave,41.918306,-87.636282,POINT (-87.636282 41.918306)
Greenview Ave & Fullerton Ave,41.92533,-87.6658,POINT (-87.6658 41.92533)
Mies van der Rohe Way & Chestnut St,41.8985866514,-87.6219152258,POINT (-87.6219152258 41.8985866514)
Kedzie Ave & Palmer Ct,41.921525,-87.707322,POINT (-87.707322 41.921525)
Broadway & Waveland Ave,41.949074,-87.648636,POINT (-87.648636 41.949074)
Franklin St & Monroe St,41.880317,-87.635185,POINT (-87.635185 41.880317)
Kedzie Ave & 38th Pl,41.8235109,-87.7041017,POINT (-87.7041017 41.8235109)
Damen Ave & Cortland St,41.915983,-87.677335,POINT (-87.677335 41.915983)
Ashland Ave & Grace St,41.950687,-87.6687,POINT (-87.6687 41.950687)
Harlem Ave & Irving Park Rd,41.95326,-87.80714,POINT (-87.80714 41.95326)
Central Park Ave & 66th St,41.773258,-87.713143,POINT (-87.713143 41.773258)
Ellis Ave & 60th St,41.7850971464,-87.6010727606,POINT (-87.6010727606 41.78509714636)
Lamon Ave & 47th St,41.80781,-87.74569,POINT (-87.74569 41.80781)
Fort Dearborn Dr & 31st St*,41.838676329,-87.6088321209,POINT (-87.608832120895 41.838676328971)
Wilton Ave & Diversey Pkwy*,41.932418,-87.652705,POINT (-87.652705 41.932418)
Cottage Grove Ave & 63rd St,41.7805309407,-87.6059702039,POINT (-87.605970203876 41.780530940709)
Western Ave & Walton St,41.8984176894,-87.6865960164,POINT (-87.6865960164 41.89841768945)
Central Ave & Wellington Ave,41.934883,-87.766753,POINT (-87.766753 41.934883)
Halsted St & Willow St,41.913865,-87.648755,POINT (-87.648755 41.913865)
University Library (NU),42.052939,-87.673447,POINT (-87.673447 42.052939)
Michigan Ave & Lake St,41.886022,-87.624398,POINT (-87.624398 41.886022)
Larrabee St & North Ave,41.91021,-87.6435,POINT (-87.6435 41.91021)
Pine Grove Ave & Irving Park Rd,41.954383,-87.648043,POINT (-87.648043 41.954383)
Jeffery Blvd & 71st St,41.766638237,-87.5764501141,POINT (-87.5764501141 41.76663823695)
Cityfront Plaza Dr & Pioneer Ct,41.890573,-87.622072,POINT (-87.622072 41.890573)
Halsted St & 123rd St,41.67096,-87.64154,POINT (-87.64154 41.67096)
Halsted St & 37th St,41.827059,-87.64572,POINT (-87.64572 41.827059)
South Shore Dr & 74th St,41.7621889604,-87.55927465,POINT (-87.55927465 41.76218896038)
LaSalle St & Illinois St,41.890762,-87.631697,POINT (-87.631697 41.890762)
Leavitt St & Addison St,41.946655,-87.683359,POINT (-87.683359 41.946655)
Western Ave & Roscoe St,41.943034,-87.687288,POINT (-87.687288 41.943034)
Sheffield Ave & Fullerton Ave,41.9256163,-87.6536574,POINT (-87.6536574 41.9256163)
Throop St & 52nd St,41.799659,-87.657195,POINT (-87.657195 41.799659)
McCormick Blvd & Devon Ave,41.9972,-87.71105,POINT (-87.71105 41.9972)
Clark St & North Ave,41.911974,-87.631942,POINT (-87.631942 41.911974)
Halsted St & Dickens Ave,41.919936,-87.64883,POINT (-87.64883 41.919936)
Sheffield Ave & Kingsbury St,41.910522,-87.653106,POINT (-87.653106 41.910522)
Michigan Ave & 14th St,41.864059,-87.623727,POINT (-87.623727 41.864059)
Milwaukee Ave & Wabansia Ave,41.912616,-87.681391,POINT (-87.681391 41.912616)
Southport Ave & Wrightwood Ave,41.928773,-87.663913,POINT (-87.663913 41.928773)
McClurg Ct & Ohio St,41.8925921197,-87.6172891259,POINT (-87.617289125919 41.89259211971)
Loomis St & Lexington St,41.8722287322,-87.661363855,POINT (-87.661363855004 41.87222873224)
Central & Elston,41.9855,-87.7682,POINT (-87.7682 41.9855)
May St & Cullerton St,41.855136,-87.654127,POINT (-87.654127 41.855136)
Damen Ave & Chicago Ave,41.8956873705,-87.6771350829,POINT (-87.677135082864 41.895687370534)
Morgan St & Lake St*,41.8854917063,-87.6522892714,POINT (-87.652289271355 41.885491706269)
Major Taylor Trail & 115th St,41.6849315952,-87.6452887058,POINT (-87.645288705826 41.684931595193)
Sedgwick St & Schiller St,41.907626,-87.638566,POINT (-87.638566 41.907626)
Burnham Harbor,41.8574117871,-87.6137915254,POINT (-87.613791525364 41.857411787074)
